{
"type": "FeatureCollection",
"name": "paraglidingSpots",
"crs": { "type": "name", "properties": { "name": "urn:ogc:def:crs:OGC:1.3:CRS84" } },
"features": [
{ "type": "Feature", "properties": { "name": "Atterissage Parapente\/Deltaplane de Rennaz" }, "geometry": { "type": "Point", "coordinates": [ 6.923293430329665, 46.387180611363675 ] } },
{ "type": "Feature", "properties": { "name": "Décollage Parapente et deltaplane de Sonchaux" }, "geometry": { "type": "Point", "coordinates": [ 6.950607267714029, 46.41802160053242 ] } },
{ "type": "Feature", "properties": { "name": "Atterro Champsec" }, "geometry": { "type": "Point", "coordinates": [ 7.236370890128434, 46.059281535203048 ] } },
{ "type": "Feature", "properties": { "name": "Décollage FFVL du Belvédère du Revard" }, "geometry": { "type": "Point", "coordinates": [ 5.974791478349045, 45.68322458280651 ] } },
{ "type": "Feature", "properties": { "name": "Villy atterrissage parapente" }, "geometry": { "type": "Point", "coordinates": [ 6.999640439911451, 46.274361953038159 ] } },
{ "type": "Feature", "properties": { "name": "Althof Drachenflieger Landewiese" }, "geometry": { "type": "Point", "coordinates": [ 8.395193098594119, 48.829311857133355 ] } },
{ "type": "Feature", "properties": { "name": "Atterrissage FFVL du Belvédère" }, "geometry": { "type": "Point", "coordinates": [ 5.58207075794737, 45.09617774853119 ] } },
{ "type": "Feature", "properties": { "name": "Décollage du Belvédère" }, "geometry": { "type": "Point", "coordinates": [ 5.593573155558469, 45.089444626091499 ] } },
{ "type": "Feature", "properties": { "name": "Atterrissage FFVL de l'Aigle" }, "geometry": { "type": "Point", "coordinates": [ 5.589415654462882, 45.124270372170002 ] } },
{ "type": "Feature", "properties": { "name": "Atterrissage FFVL des Farlaix" }, "geometry": { "type": "Point", "coordinates": [ 5.521526526883841, 45.129698914512289 ] } },
{ "type": "Feature", "properties": { "name": "Décollage du Crêt" }, "geometry": { "type": "Point", "coordinates": [ 5.516806962959463, 45.117131636924888 ] } },
{ "type": "Feature", "properties": { "name": "Décollage de l'Aigle" }, "geometry": { "type": "Point", "coordinates": [ 5.597352306984341, 45.118354268212791 ] } },
{ "type": "Feature", "properties": { "name": "Plage de Golfe Bleu" }, "geometry": { "type": "Point", "coordinates": [ 7.45438963575498, 43.758972116514521 ] } },
{ "type": "Feature", "properties": { "name": "Décollage FFVL de Provinces" }, "geometry": { "type": "Point", "coordinates": [ 5.807164709060194, 45.601791639590346 ] } },
{ "type": "Feature", "properties": { "name": "Atterissage de la Digue" }, "geometry": { "type": "Point", "coordinates": [ 6.067647493457548, 45.385671277419469 ] } },
{ "type": "Feature", "properties": { "name": "Verel-pragondran" }, "geometry": { "type": "Point", "coordinates": [ 5.94625898219251, 45.626794252946539 ] } },
{ "type": "Feature", "properties": { "name": "Le sire - sud" }, "geometry": { "type": "Point", "coordinates": [ 5.966095403090538, 45.630667790734016 ] } },
{ "type": "Feature", "properties": { "name": "Verel-pragondran - montagny" }, "geometry": { "type": "Point", "coordinates": [ 5.931579844259793, 45.609681109451614 ] } },
{ "type": "Feature", "properties": { "name": "Décollage du Cormet de Roselend" }, "geometry": { "type": "Point", "coordinates": [ 6.694611859794008, 45.68788619101462 ] } },
{ "type": "Feature", "properties": { "name": "Atterrissage de Saint-André-les-Alpes" }, "geometry": { "type": "Point", "coordinates": [ 6.509002190976417, 43.958812444420886 ] } },
{ "type": "Feature", "properties": { "name": "Décollage Chalvet Ouest" }, "geometry": { "type": "Point", "coordinates": [ 6.479715036563079, 43.97851111776977 ] } },
{ "type": "Feature", "properties": { "name": "Atterissage FFVL de Saint-Nazaire-les-Eymes" }, "geometry": { "type": "Point", "coordinates": [ 5.841870530922975, 45.265902225920534 ] } },
{ "type": "Feature", "properties": { "name": "Montlambert" }, "geometry": { "type": "Point", "coordinates": [ 6.117578145435658, 45.541135912982767 ] } },
{ "type": "Feature", "properties": { "name": "Décollage de Malatrait" }, "geometry": { "type": "Point", "coordinates": [ 6.106652513446548, 45.393709263623059 ] } },
{ "type": "Feature", "properties": { "name": "Fluggelände Oppenau Nordost - Ibacher Holzplatz" }, "geometry": { "type": "Point", "coordinates": [ 8.146740544324171, 48.447971881143069 ] } },
{ "type": "Feature", "properties": { "name": "Fluggelände Oppenau Ost - Schäfersfeld" }, "geometry": { "type": "Point", "coordinates": [ 8.152094721738585, 48.435695067775534 ] } },
{ "type": "Feature", "properties": { "name": "Landeplatz Oybelehalle" }, "geometry": { "type": "Point", "coordinates": [ 10.288020528094487, 47.401635131301965 ] } },
{ "type": "Feature", "properties": { "name": "Landeplatz Seealpe" }, "geometry": { "type": "Point", "coordinates": [ 10.318585612316234, 47.40777715634556 ] } },
{ "type": "Feature", "properties": { "name": "Startplatz Paragleiter Flugschule Blue Sky" }, "geometry": { "type": "Point", "coordinates": [ 12.417154024639313, 46.757241667651371 ] } },
{ "type": "Feature", "properties": { "name": "" }, "geometry": { "type": "Point", "coordinates": [ 8.562581476564525, 47.889551126069264 ] } },
{ "type": "Feature", "properties": { "name": "" }, "geometry": { "type": "Point", "coordinates": [ 8.561920612941593, 47.892671542580885 ] } },
{ "type": "Feature", "properties": { "name": "Landeplatz Flugschule Steiermark" }, "geometry": { "type": "Point", "coordinates": [ 15.490276883307768, 47.294076264990174 ] } },
{ "type": "Feature", "properties": { "name": "Startwiese Flugschule Steiermark" }, "geometry": { "type": "Point", "coordinates": [ 15.48011490136007, 47.303278601625806 ] } },
{ "type": "Feature", "properties": { "name": "Gleitschirm Landeplatz" }, "geometry": { "type": "Point", "coordinates": [ 11.557537270404111, 47.673891408198671 ] } },
{ "type": "Feature", "properties": { "name": "" }, "geometry": { "type": "Point", "coordinates": [ 8.560251533044111, 47.88459950721726 ] } },
{ "type": "Feature", "properties": { "name": "Décollage FFVL Saint hilaire du touvet Nord" }, "geometry": { "type": "Point", "coordinates": [ 5.8877999, 45.30680255 ] } },
{ "type": "Feature", "properties": { "name": "HG-GS Landeplatz" }, "geometry": { "type": "Point", "coordinates": [ 13.191910234131564, 46.746494731010692 ] } },
{ "type": "Feature", "properties": { "name": "Atterissage parapente FFVL de Viuz-la-Chiesaz" }, "geometry": { "type": "Point", "coordinates": [ 6.052156745301616, 45.81232635668183 ] } },
{ "type": "Feature", "properties": { "name": "HG GS Start" }, "geometry": { "type": "Point", "coordinates": [ 13.14954097405592, 46.772535558109155 ] } },
{ "type": "Feature", "properties": { "name": "Tovre" }, "geometry": { "type": "Point", "coordinates": [ 10.955234755818461, 46.1541715999319 ] } },
{ "type": "Feature", "properties": { "name": "Sederon-mevouillon : bergies" }, "geometry": { "type": "Point", "coordinates": [ 5.521664909944213, 44.22003051454957 ] } },
{ "type": "Feature", "properties": { "name": "" }, "geometry": { "type": "Point", "coordinates": [ 5.475657767888809, 44.224352390759563 ] } },
{ "type": "Feature", "properties": { "name": "Atterrissage de Saint-Vincent-les-Forts" }, "geometry": { "type": "Point", "coordinates": [ 6.371802950731764, 44.442388333501803 ] } },
{ "type": "Feature", "properties": { "name": "Décollage de Saint-Vincent-les-Forts" }, "geometry": { "type": "Point", "coordinates": [ 6.371560101032837, 44.443283582528011 ] } },
{ "type": "Feature", "properties": { "name": "ehemalige Drachenflieger Startrampe" }, "geometry": { "type": "Point", "coordinates": [ 8.402398954596084, 48.823333847829332 ] } },
{ "type": "Feature", "properties": { "name": "" }, "geometry": { "type": "Point", "coordinates": [ 12.294322933333332, 47.513739266666661 ] } },
{ "type": "Feature", "properties": { "name": "Panettone" }, "geometry": { "type": "Point", "coordinates": [ 13.784787986347711, 42.344692329198935 ] } },
{ "type": "Feature", "properties": { "name": "Pista di Decollo Parapendii e Deltaplani - Poggio Bustone - Collinette" }, "geometry": { "type": "Point", "coordinates": [ 12.883069512837077, 42.514768169067366 ] } },
{ "type": "Feature", "properties": { "name": "Campo atterraggio parapendio Poggio Bustone" }, "geometry": { "type": "Point", "coordinates": [ 12.857490089352803, 42.485359476875921 ] } },
{ "type": "Feature", "properties": { "name": "Decollo Panettone" }, "geometry": { "type": "Point", "coordinates": [ 11.804342229145755, 45.861373959964304 ] } },
{ "type": "Feature", "properties": { "name": "Decollo Da Beppi Tappeti" }, "geometry": { "type": "Point", "coordinates": [ 11.768854677994154, 45.823461921930509 ] } },
{ "type": "Feature", "properties": { "name": "Atterraggio A - Garden Relais" }, "geometry": { "type": "Point", "coordinates": [ 11.785313323728372, 45.806496419575986 ] } },
{ "type": "Feature", "properties": { "name": "Duddefliecher" }, "geometry": { "type": "Point", "coordinates": [ 8.026053399177227, 49.240345694193586 ] } },
{ "type": "Feature", "properties": { "name": "" }, "geometry": { "type": "Point", "coordinates": [ 6.445163158835521, 44.042364781827644 ] } },
{ "type": "Feature", "properties": { "name": "Décollage Chalvet Sud" }, "geometry": { "type": "Point", "coordinates": [ 6.491829211129757, 43.976527187602635 ] } },
{ "type": "Feature", "properties": { "name": "Schleppgelände Birken" }, "geometry": { "type": "Point", "coordinates": [ 12.2129230249757, 48.482550650136865 ] } },
{ "type": "Feature", "properties": { "name": "Montlambert" }, "geometry": { "type": "Point", "coordinates": [ 6.104915621141931, 45.55286455537756 ] } },
{ "type": "Feature", "properties": { "name": "Fluggelände Neuffen West" }, "geometry": { "type": "Point", "coordinates": [ 9.404408814436174, 48.549329028015372 ] } },
{ "type": "Feature", "properties": { "name": "Décollage FFVL de la Table d'Orientation" }, "geometry": { "type": "Point", "coordinates": [ 6.189143818513608, 46.148652375093036 ] } },
{ "type": "Feature", "properties": { "name": "Kebelj" }, "geometry": { "type": "Point", "coordinates": [ 15.443056534298506, 46.440029054329344 ] } },
{ "type": "Feature", "properties": { "name": "Dreifaltigkeitsberg" }, "geometry": { "type": "Point", "coordinates": [ 8.760210987967982, 48.083968216516205 ] } },
{ "type": "Feature", "properties": { "name": "Atterrissage de l'École" }, "geometry": { "type": "Point", "coordinates": [ 6.181584752825934, 46.161130716410234 ] } },
{ "type": "Feature", "properties": { "name": "" }, "geometry": { "type": "Point", "coordinates": [ 12.352467226787892, 46.191752060424491 ] } },
{ "type": "Feature", "properties": { "name": "Landingplace Dolada" }, "geometry": { "type": "Point", "coordinates": [ 12.368820007324452, 46.158259647005764 ] } },
{ "type": "Feature", "properties": { "name": "Décollage du Pas de Saint-Martin" }, "geometry": { "type": "Point", "coordinates": [ 5.465153602592956, 45.022686121487006 ] } },
{ "type": "Feature", "properties": { "name": "Bischlingshöhe Südstartplatz" }, "geometry": { "type": "Point", "coordinates": [ 13.298103291996062, 47.461512322759283 ] } },
{ "type": "Feature", "properties": { "name": "Bischlingshöhe Weststartplatz" }, "geometry": { "type": "Point", "coordinates": [ 13.297044114866967, 47.462321586358975 ] } },
{ "type": "Feature", "properties": { "name": "" }, "geometry": { "type": "Point", "coordinates": [ 13.269548626329559, 47.459541268977233 ] } },
{ "type": "Feature", "properties": { "name": "Scuola Volo Parapendio Deltaland" }, "geometry": { "type": "Point", "coordinates": [ 10.744627160994357, 45.594165799462395 ] } },
{ "type": "Feature", "properties": { "name": "Espace3D - Parapente" }, "geometry": { "type": "Point", "coordinates": [ 6.202875907777028, 45.781250778939317 ] } },
{ "type": "Feature", "properties": { "name": "Gleitschirmfluggelände Kienhalde West" }, "geometry": { "type": "Point", "coordinates": [ 8.55196705252167, 48.735617562043785 ] } },
{ "type": "Feature", "properties": { "name": "Adrénaline Parapente Annecy" }, "geometry": { "type": "Point", "coordinates": [ 6.24479295, 45.8087208 ] } },
{ "type": "Feature", "properties": { "name": "Startplatz Böhming" }, "geometry": { "type": "Point", "coordinates": [ 11.349887996408588, 48.94453144950468 ] } },
{ "type": "Feature", "properties": { "name": "Atterissage Parapente\/Delta 'Vionnaz'" }, "geometry": { "type": "Point", "coordinates": [ 6.900122055951121, 46.316522641544793 ] } },
{ "type": "Feature", "properties": { "name": "Drachenflieger Startplatz" }, "geometry": { "type": "Point", "coordinates": [ 8.403035803331647, 48.822116391646674 ] } },
{ "type": "Feature", "properties": { "name": "Décollage du Mont Denier" }, "geometry": { "type": "Point", "coordinates": [ 6.267002421746086, 43.853886093889912 ] } },
{ "type": "Feature", "properties": { "name": "" }, "geometry": { "type": "Point", "coordinates": [ 6.247770134763528, 43.853258510341377 ] } },
{ "type": "Feature", "properties": { "name": "" }, "geometry": { "type": "Point", "coordinates": [ 7.284236610773818, 46.461733257623301 ] } },
{ "type": "Feature", "properties": { "name": "Geitschirm Startplatz Wispile Est" }, "geometry": { "type": "Point", "coordinates": [ 7.293271391233048, 46.437093636829978 ] } },
{ "type": "Feature", "properties": { "name": "Décollage Chalvet Est" }, "geometry": { "type": "Point", "coordinates": [ 6.492452035461468, 43.976899071195277 ] } },
{ "type": "Feature", "properties": { "name": "Startplatz Ost" }, "geometry": { "type": "Point", "coordinates": [ 16.04094014212437, 47.829373840565843 ] } },
{ "type": "Feature", "properties": { "name": "Sospel - agaisen" }, "geometry": { "type": "Point", "coordinates": [ 7.45467029294886, 43.886840725524429 ] } },
{ "type": "Feature", "properties": { "name": "Gleitschirm-Startplatz Nordost" }, "geometry": { "type": "Point", "coordinates": [ 8.281920710152857, 48.764798890153301 ] } },
{ "type": "Feature", "properties": { "name": "Gleitschirm-Landeplatz Nordost" }, "geometry": { "type": "Point", "coordinates": [ 8.295520607381864, 48.766897112023926 ] } },
{ "type": "Feature", "properties": { "name": "Gleitschirm-Startplatz West" }, "geometry": { "type": "Point", "coordinates": [ 8.279228908209152, 48.764637839212398 ] } },
{ "type": "Feature", "properties": { "name": "Décollage de Roquebrune Cap-Martin Mont-Gros" }, "geometry": { "type": "Point", "coordinates": [ 7.442697905881027, 43.765482730171613 ] } },
{ "type": "Feature", "properties": { "name": "Décollage Les Ruinettes" }, "geometry": { "type": "Point", "coordinates": [ 7.251518356337421, 46.090225747254493 ] } },
{ "type": "Feature", "properties": { "name": "Startplatz NW" }, "geometry": { "type": "Point", "coordinates": [ 8.405580141813427, 48.758534239742772 ] } },
{ "type": "Feature", "properties": { "name": "Décollage parapente FFVL de Planfait" }, "geometry": { "type": "Point", "coordinates": [ 6.223047914811909, 45.853210527110662 ] } },
{ "type": "Feature", "properties": { "name": "Schleppgelände Steinbach" }, "geometry": { "type": "Point", "coordinates": [ 12.083334229871289, 48.718586283039691 ] } },
{ "type": "Feature", "properties": { "name": "Vzletišče Lijak" }, "geometry": { "type": "Point", "coordinates": [ 13.723495509436024, 45.963337590993675 ] } },
{ "type": "Feature", "properties": { "name": "Lijak landing" }, "geometry": { "type": "Point", "coordinates": [ 13.712628975423581, 45.947849381354544 ] } },
{ "type": "Feature", "properties": { "name": "Buzet - zavoj" }, "geometry": { "type": "Point", "coordinates": [ 13.965121086753976, 45.444314528950464 ] } },
{ "type": "Feature", "properties": { "name": "Buzet - Raspadalica" }, "geometry": { "type": "Point", "coordinates": [ 13.998580514147569, 45.423687403559313 ] } },
{ "type": "Feature", "properties": { "name": "Gleitschirmstartplatz Rossbühl" }, "geometry": { "type": "Point", "coordinates": [ 8.239199904787041, 48.48688075037871 ] } },
{ "type": "Feature", "properties": { "name": "" }, "geometry": { "type": "Point", "coordinates": [ 8.200261969428823, 46.721949504739683 ] } },
{ "type": "Feature", "properties": { "name": "" }, "geometry": { "type": "Point", "coordinates": [ 8.254836141324068, 46.7358267895982 ] } },
{ "type": "Feature", "properties": { "name": "Atterrissage FFVL du Coin" }, "geometry": { "type": "Point", "coordinates": [ 6.160688396953145, 46.133700559180319 ] } },
{ "type": "Feature", "properties": { "name": "Startplatz West" }, "geometry": { "type": "Point", "coordinates": [ 12.248238547752004, 47.747222234064481 ] } },
{ "type": "Feature", "properties": { "name": "Gleitschirm-Landeplatz" }, "geometry": { "type": "Point", "coordinates": [ 12.23232957648548, 47.771017156477818 ] } },
{ "type": "Feature", "properties": { "name": "Gleitschirm Landeplatz Eichholtern" }, "geometry": { "type": "Point", "coordinates": [ 8.435119343916911, 47.067145648168896 ] } },
{ "type": "Feature", "properties": { "name": "Startplatz Staffelhöhe" }, "geometry": { "type": "Point", "coordinates": [ 8.460570774216746, 47.047704897215993 ] } },
{ "type": "Feature", "properties": { "name": "Startplatz Rufiberg" }, "geometry": { "type": "Point", "coordinates": [ 8.54597544065934, 47.08206334732548 ] } },
{ "type": "Feature", "properties": { "name": "" }, "geometry": { "type": "Point", "coordinates": [ 8.519948890390367, 47.027773639398632 ] } },
{ "type": "Feature", "properties": { "name": "" }, "geometry": { "type": "Point", "coordinates": [ 8.486915708848086, 47.055749864318862 ] } },
{ "type": "Feature", "properties": { "name": "Landeplatz Goldau" }, "geometry": { "type": "Point", "coordinates": [ 8.544164664628697, 47.051699830106422 ] } },
{ "type": "Feature", "properties": { "name": "" }, "geometry": { "type": "Point", "coordinates": [ 8.672973566453368, 46.862211451071012 ] } },
{ "type": "Feature", "properties": { "name": "Gleitschirm Startplatz Schluchegg" }, "geometry": { "type": "Point", "coordinates": [ 8.458552094433099, 47.063440823883823 ] } },
{ "type": "Feature", "properties": { "name": "" }, "geometry": { "type": "Point", "coordinates": [ 8.36550735, 46.8809389 ] } },
{ "type": "Feature", "properties": { "name": "" }, "geometry": { "type": "Point", "coordinates": [ 8.377362784572803, 46.883105581637913 ] } },
{ "type": "Feature", "properties": { "name": "Landeplatz Flieger Base" }, "geometry": { "type": "Point", "coordinates": [ 13.889041507960961, 46.654599596384664 ] } },
{ "type": "Feature", "properties": { "name": "" }, "geometry": { "type": "Point", "coordinates": [ 12.207878908188063, 46.002341292841216 ] } },
{ "type": "Feature", "properties": { "name": "Molveno lower takeoff" }, "geometry": { "type": "Point", "coordinates": [ 10.959732422176048, 46.145767369709482 ] } },
{ "type": "Feature", "properties": { "name": "" }, "geometry": { "type": "Point", "coordinates": [ 8.639045047786109, 45.897381705811078 ] } },
{ "type": "Feature", "properties": { "name": "Paragliding" }, "geometry": { "type": "Point", "coordinates": [ 8.674121044129238, 45.922040945282525 ] } },
{ "type": "Feature", "properties": { "name": "" }, "geometry": { "type": "Point", "coordinates": [ 9.0215933, 45.9289137 ] } },
{ "type": "Feature", "properties": { "name": "Brändlen" }, "geometry": { "type": "Point", "coordinates": [ 8.409612681928213, 46.905043071659755 ] } },
{ "type": "Feature", "properties": { "name": "Gummen" }, "geometry": { "type": "Point", "coordinates": [ 8.36592440623463, 46.902633389985638 ] } },
{ "type": "Feature", "properties": { "name": "Val pelouse - molliet" }, "geometry": { "type": "Point", "coordinates": [ 6.139503793858612, 45.439413979746746 ] } },
{ "type": "Feature", "properties": { "name": "Val pelouse" }, "geometry": { "type": "Point", "coordinates": [ 6.169873166889942, 45.419602025296001 ] } },
{ "type": "Feature", "properties": { "name": "Plešivica" }, "geometry": { "type": "Point", "coordinates": [ 15.668212310596383, 45.737062712167948 ] } },
{ "type": "Feature", "properties": { "name": "Atterraggio Paradiso" }, "geometry": { "type": "Point", "coordinates": [ 11.769793942164878, 45.808310303540402 ] } },
{ "type": "Feature", "properties": { "name": "Atterrissage Coupiac - Parapente & Deltaplane" }, "geometry": { "type": "Point", "coordinates": [ 3.699708122555025, 43.895670640206433 ] } },
{ "type": "Feature", "properties": { "name": "Atterrissage de Confort" }, "geometry": { "type": "Point", "coordinates": [ 5.814841824733191, 46.150424624146034 ] } },
{ "type": "Feature", "properties": { "name": "Blomberg Landeplatz" }, "geometry": { "type": "Point", "coordinates": [ 11.505888110847224, 47.750312400683491 ] } },
{ "type": "Feature", "properties": { "name": "Décollage du Mont Saint-Romain" }, "geometry": { "type": "Point", "coordinates": [ 4.750719182470746, 46.496195677592056 ] } },
{ "type": "Feature", "properties": { "name": "Gleitschirm- und Drachenstartplatz Tegelberg" }, "geometry": { "type": "Point", "coordinates": [ 10.779858343717171, 47.559744044747447 ] } },
{ "type": "Feature", "properties": { "name": "Landeplatz Para- und Hängegleiter" }, "geometry": { "type": "Point", "coordinates": [ 10.755574628767354, 47.571131613907561 ] } },
{ "type": "Feature", "properties": { "name": "Bisanne - beaufort" }, "geometry": { "type": "Point", "coordinates": [ 6.553480608861588, 45.72144404418426 ] } },
{ "type": "Feature", "properties": { "name": "Startplatz Zugerberg" }, "geometry": { "type": "Point", "coordinates": [ 8.535769053481101, 47.14799546735793 ] } },
{ "type": "Feature", "properties": { "name": "" }, "geometry": { "type": "Point", "coordinates": [ 8.513410490427468, 47.149806277441307 ] } },
{ "type": "Feature", "properties": { "name": "Landeplatz Paragleiter" }, "geometry": { "type": "Point", "coordinates": [ 10.722092767550514, 47.647273577611614 ] } },
{ "type": "Feature", "properties": { "name": "Atterrissage : Bar sur Aube" }, "geometry": { "type": "Point", "coordinates": [ 4.710020691845979, 48.219918781787193 ] } },
{ "type": "Feature", "properties": { "name": "Décollage : Sainte-Germaine" }, "geometry": { "type": "Point", "coordinates": [ 4.699079901846891, 48.219122009860172 ] } },
{ "type": "Feature", "properties": { "name": "Hängegleiter Startrampe Nord" }, "geometry": { "type": "Point", "coordinates": [ 15.4608828, 47.19861625 ] } },
{ "type": "Feature", "properties": { "name": "" }, "geometry": { "type": "Point", "coordinates": [ 11.556306536662351, 43.701520709427058 ] } },
{ "type": "Feature", "properties": { "name": "Gleitschirmstartfeld" }, "geometry": { "type": "Point", "coordinates": [ 10.811216265212792, 47.606701369439129 ] } },
{ "type": "Feature", "properties": { "name": "Gleitschirm-Landeplaz" }, "geometry": { "type": "Point", "coordinates": [ 10.798819566873911, 47.612796361350135 ] } },
{ "type": "Feature", "properties": { "name": "Gleitschirmstartfeld Nordwest" }, "geometry": { "type": "Point", "coordinates": [ 10.81041685, 47.606485299999989 ] } },
{ "type": "Feature", "properties": { "name": "" }, "geometry": { "type": "Point", "coordinates": [ 10.059960546612603, 44.671243965385649 ] } },
{ "type": "Feature", "properties": { "name": "Paragleiter Landeplatz" }, "geometry": { "type": "Point", "coordinates": [ 15.329591604733377, 47.484489997961028 ] } },
{ "type": "Feature", "properties": { "name": "" }, "geometry": { "type": "Point", "coordinates": [ 15.3191506293386, 47.50389833028288 ] } },
{ "type": "Feature", "properties": { "name": "Paragleiter Startplatz" }, "geometry": { "type": "Point", "coordinates": [ 14.163816976786668, 47.886334421203742 ] } },
{ "type": "Feature", "properties": { "name": "Claret - les embruscalles" }, "geometry": { "type": "Point", "coordinates": [ 3.886748678261732, 43.875708318833887 ] } },
{ "type": "Feature", "properties": { "name": "" }, "geometry": { "type": "Point", "coordinates": [ 11.403540639303092, 46.038591152040148 ] } },
{ "type": "Feature", "properties": { "name": "Flugschule Tegelberg" }, "geometry": { "type": "Point", "coordinates": [ 10.804393802196115, 47.613099193132285 ] } },
{ "type": "Feature", "properties": { "name": "Atterrissage FFVL de Lumbin" }, "geometry": { "type": "Point", "coordinates": [ 5.906294020410725, 45.302206063928288 ] } },
{ "type": "Feature", "properties": { "name": "Gleitschirmlandeplatz Höhematte" }, "geometry": { "type": "Point", "coordinates": [ 7.8582629, 46.68623985 ] } },
{ "type": "Feature", "properties": { "name": "" }, "geometry": { "type": "Point", "coordinates": [ 10.964852465510187, 46.139607952495943 ] } },
{ "type": "Feature", "properties": { "name": "Mont ventoux nord - savoillan" }, "geometry": { "type": "Point", "coordinates": [ 5.376330867282478, 44.180033912827106 ] } },
{ "type": "Feature", "properties": { "name": "Deltaflieger- und Gleitschirmlandeplatz Lehn" }, "geometry": { "type": "Point", "coordinates": [ 7.823615224194516, 46.680667994851603 ] } },
{ "type": "Feature", "properties": { "name": "Landeplatz Kampenwand" }, "geometry": { "type": "Point", "coordinates": [ 12.33326329318359, 47.781876512042984 ] } },
{ "type": "Feature", "properties": { "name": "" }, "geometry": { "type": "Point", "coordinates": [ 13.784677703651722, 47.801696477084903 ] } },
{ "type": "Feature", "properties": { "name": "Gleitschirm-Startrampe" }, "geometry": { "type": "Point", "coordinates": [ 9.838677305714169, 48.679665653208772 ] } },
{ "type": "Feature", "properties": { "name": "Decollo Casette" }, "geometry": { "type": "Point", "coordinates": [ 11.767991222818592, 45.827984756573507 ] } },
{ "type": "Feature", "properties": { "name": "Pedana" }, "geometry": { "type": "Point", "coordinates": [ 11.771276069127415, 45.824438332999669 ] } },
{ "type": "Feature", "properties": { "name": "Stella" }, "geometry": { "type": "Point", "coordinates": [ 11.763530284279602, 45.819341000132312 ] } },
{ "type": "Feature", "properties": { "name": "Decollo Costalunga" }, "geometry": { "type": "Point", "coordinates": [ 11.745041383820368, 45.811893980765362 ] } },
{ "type": "Feature", "properties": { "name": "Decollo Baita Camol" }, "geometry": { "type": "Point", "coordinates": [ 11.786974440922412, 45.845396382314618 ] } },
{ "type": "Feature", "properties": { "name": "Serre de barre" }, "geometry": { "type": "Point", "coordinates": [ 4.095750126270381, 44.417620894725921 ] } },
{ "type": "Feature", "properties": { "name": "" }, "geometry": { "type": "Point", "coordinates": [ 10.087840163299859, 45.920080097742712 ] } },
{ "type": "Feature", "properties": { "name": "Décollage FFVL Est de Saint-Hilaire-du-Touvet" }, "geometry": { "type": "Point", "coordinates": [ 5.888282224457797, 45.308375649360009 ] } },
{ "type": "Feature", "properties": { "name": "" }, "geometry": { "type": "Point", "coordinates": [ 10.284608416770718, 45.549136768411074 ] } },
{ "type": "Feature", "properties": { "name": "Innimond - la table d'orientation" }, "geometry": { "type": "Point", "coordinates": [ 5.59192165, 45.7848829 ] } },
{ "type": "Feature", "properties": { "name": "Paragliding Landing Field Tannheim\/Neunerköpfle" }, "geometry": { "type": "Point", "coordinates": [ 10.525050827762696, 47.500106787937341 ] } },
{ "type": "Feature", "properties": { "name": "Oststart" }, "geometry": { "type": "Point", "coordinates": [ 12.559599425655389, 47.761751593846988 ] } },
{ "type": "Feature", "properties": { "name": "Kaštelir paraglading" }, "geometry": { "type": "Point", "coordinates": [ 13.668060542115075, 45.330699590751891 ] } },
{ "type": "Feature", "properties": { "name": "Japetić" }, "geometry": { "type": "Point", "coordinates": [ 15.603671256756694, 45.740439389480102 ] } },
{ "type": "Feature", "properties": { "name": "Preseka" }, "geometry": { "type": "Point", "coordinates": [ 15.646604827788735, 45.750401500634538 ] } },
{ "type": "Feature", "properties": { "name": "Smuk" }, "geometry": { "type": "Point", "coordinates": [ 15.180818997622252, 45.660926381101838 ] } },
{ "type": "Feature", "properties": { "name": "Tribalj" }, "geometry": { "type": "Point", "coordinates": [ 14.682944869953069, 45.239533397060725 ] } },
{ "type": "Feature", "properties": { "name": "Poletište Ivanščica" }, "geometry": { "type": "Point", "coordinates": [ 16.127436628289821, 46.181879288561021 ] } },
{ "type": "Feature", "properties": { "name": "Décollage FFVL Sud de Saint-Hilaire du Touvet" }, "geometry": { "type": "Point", "coordinates": [ 5.890680849217622, 45.310268855046473 ] } },
{ "type": "Feature", "properties": { "name": "" }, "geometry": { "type": "Point", "coordinates": [ 15.671950744247201, 49.00944357299678 ] } },
{ "type": "Feature", "properties": { "name": "" }, "geometry": { "type": "Point", "coordinates": [ 3.923781876775892, 45.984794766640057 ] } },
{ "type": "Feature", "properties": { "name": "DGFC Landeplatz" }, "geometry": { "type": "Point", "coordinates": [ 13.889191766666665, 46.65401263333333 ] } },
{ "type": "Feature", "properties": { "name": "Flugschullandeplatz" }, "geometry": { "type": "Point", "coordinates": [ 13.89149935016472, 46.652770960947471 ] } },
{ "type": "Feature", "properties": { "name": "Tandemlandeplatz" }, "geometry": { "type": "Point", "coordinates": [ 13.881025918404269, 46.655167237286349 ] } },
{ "type": "Feature", "properties": { "name": "Montagne de Bluye Sud" }, "geometry": { "type": "Point", "coordinates": [ 5.226158134433764, 44.229377030938117 ] } },
{ "type": "Feature", "properties": { "name": "Saleve - troinex - suisse" }, "geometry": { "type": "Point", "coordinates": [ 6.158163362313156, 46.162386873051119 ] } },
{ "type": "Feature", "properties": { "name": "" }, "geometry": { "type": "Point", "coordinates": [ 11.810427469498796, 47.171358885510223 ] } },
{ "type": "Feature", "properties": { "name": "" }, "geometry": { "type": "Point", "coordinates": [ 11.816809634910681, 47.176217578355519 ] } },
{ "type": "Feature", "properties": { "name": "" }, "geometry": { "type": "Point", "coordinates": [ 15.782158691925098, 48.195846638342672 ] } },
{ "type": "Feature", "properties": { "name": "Atterrissage FFVL \"Pont de Zone\"" }, "geometry": { "type": "Point", "coordinates": [ 6.209327552710016, 46.172538358728943 ] } },
{ "type": "Feature", "properties": { "name": "" }, "geometry": { "type": "Point", "coordinates": [ 6.467321873836385, 46.770112908369001 ] } },
{ "type": "Feature", "properties": { "name": "Décollage de Longeanne" }, "geometry": { "type": "Point", "coordinates": [ 5.71290341430959, 44.540714879108975 ] } },
{ "type": "Feature", "properties": { "name": "Décollage des Antennes Saint-Apôtre" }, "geometry": { "type": "Point", "coordinates": [ 5.7432729496658, 44.540581543548761 ] } },
{ "type": "Feature", "properties": { "name": "Décollage du Petit Mont Rond" }, "geometry": { "type": "Point", "coordinates": [ 6.018182915279525, 46.358419091896465 ] } },
{ "type": "Feature", "properties": { "name": "Atterrissage de Gex parapente et delta" }, "geometry": { "type": "Point", "coordinates": [ 6.065028077803403, 46.342654346072742 ] } },
{ "type": "Feature", "properties": { "name": "atterrisage segondaire de vesancy" }, "geometry": { "type": "Point", "coordinates": [ 6.095337366666667, 46.357128233333341 ] } },
{ "type": "Feature", "properties": { "name": "Décollage de la Vesancienne" }, "geometry": { "type": "Point", "coordinates": [ 6.080468971858369, 46.367819528909699 ] } },
{ "type": "Feature", "properties": { "name": "Saint-Cergue La Bosse" }, "geometry": { "type": "Point", "coordinates": [ 6.17584352260377, 46.444947593634637 ] } },
{ "type": "Feature", "properties": { "name": "Mauborget" }, "geometry": { "type": "Point", "coordinates": [ 6.612024984174332, 46.854046545620768 ] } },
{ "type": "Feature", "properties": { "name": "villy atterrisage delta parapente" }, "geometry": { "type": "Point", "coordinates": [ 6.993975597824967, 46.277271416157518 ] } },
{ "type": "Feature", "properties": { "name": "Curnaux" }, "geometry": { "type": "Point", "coordinates": [ 7.023804701969593, 46.2969799742147 ] } },
{ "type": "Feature", "properties": { "name": "Curnaux d'en bas" }, "geometry": { "type": "Point", "coordinates": [ 7.02035608764029, 46.296582856843699 ] } },
{ "type": "Feature", "properties": { "name": "Chailly" }, "geometry": { "type": "Point", "coordinates": [ 6.885900255644311, 46.455599445710568 ] } },
{ "type": "Feature", "properties": { "name": "Col de la faucille" }, "geometry": { "type": "Point", "coordinates": [ 6.009160315920849, 46.366779057668161 ] } },
{ "type": "Feature", "properties": { "name": "Décollage" }, "geometry": { "type": "Point", "coordinates": [ 6.977423070267158, 46.43149305466968 ] } },
{ "type": "Feature", "properties": { "name": "Gurli" }, "geometry": { "type": "Point", "coordinates": [ 7.282831938810317, 46.713568578876981 ] } },
{ "type": "Feature", "properties": { "name": "Schrapflisbüel" }, "geometry": { "type": "Point", "coordinates": [ 7.290436209259124, 46.724403941132991 ] } },
{ "type": "Feature", "properties": { "name": "Morond Décollage Ouest" }, "geometry": { "type": "Point", "coordinates": [ 6.343953946232494, 46.750323779054014 ] } },
{ "type": "Feature", "properties": { "name": "Morond Décollage Sud" }, "geometry": { "type": "Point", "coordinates": [ 6.347985922831199, 46.748767515791862 ] } },
{ "type": "Feature", "properties": { "name": "Morond Décollage Nord" }, "geometry": { "type": "Point", "coordinates": [ 6.356198553320937, 46.76112515783408 ] } },
{ "type": "Feature", "properties": { "name": "Atterrissage du Gousson Longeville" }, "geometry": { "type": "Point", "coordinates": [ 6.328610973976472, 46.758656957980421 ] } },
{ "type": "Feature", "properties": { "name": "Déco de la Dent de Vaulion" }, "geometry": { "type": "Point", "coordinates": [ 6.350598866250815, 46.684230750628124 ] } },
{ "type": "Feature", "properties": { "name": "Déco de la Dent de Vaulion" }, "geometry": { "type": "Point", "coordinates": [ 6.350773619113338, 46.684145804743004 ] } },
{ "type": "Feature", "properties": { "name": "Côtelette" }, "geometry": { "type": "Point", "coordinates": [ 6.483758869997011, 46.779277395004875 ] } },
{ "type": "Feature", "properties": { "name": "Côtelette" }, "geometry": { "type": "Point", "coordinates": [ 6.485586833742349, 46.779718469749803 ] } },
{ "type": "Feature", "properties": { "name": "Landeplatz Oberwil" }, "geometry": { "type": "Point", "coordinates": [ 8.513410490427466, 47.1498062774413 ] } },
{ "type": "Feature", "properties": { "name": "Gleitschirm-Drachen Startplatz Gschasikopf \"Hans Uhl\"" }, "geometry": { "type": "Point", "coordinates": [ 8.128249576063096, 48.186180052840193 ] } },
{ "type": "Feature", "properties": { "name": "Landeplatz" }, "geometry": { "type": "Point", "coordinates": [ 8.109512001108824, 48.195013639708698 ] } },
{ "type": "Feature", "properties": { "name": "Gleitschirmflugschule" }, "geometry": { "type": "Point", "coordinates": [ 8.917322857864615, 47.315007009455172 ] } },
{ "type": "Feature", "properties": { "name": "Gleitschirm- und Drachenlandeplatz DCB Ruhpolding und Flugschule Freiraum" }, "geometry": { "type": "Point", "coordinates": [ 12.626276311730873, 47.744641863989152 ] } },
{ "type": "Feature", "properties": { "name": "Le sire - les brocolis" }, "geometry": { "type": "Point", "coordinates": [ 5.928019903208678, 45.617802509037922 ] } },
{ "type": "Feature", "properties": { "name": "Jonatal" }, "geometry": { "type": "Point", "coordinates": [ 8.919527286217647, 47.295521787227251 ] } },
{ "type": "Feature", "properties": { "name": "Landeplatz Gibswil" }, "geometry": { "type": "Point", "coordinates": [ 8.914159283708722, 47.309995500115427 ] } },
{ "type": "Feature", "properties": { "name": "" }, "geometry": { "type": "Point", "coordinates": [ 6.619190424616169, 46.080044244404185 ] } },
{ "type": "Feature", "properties": { "name": "Decollo Parapendio" }, "geometry": { "type": "Point", "coordinates": [ 8.439935150518425, 44.251256383415765 ] } },
{ "type": "Feature", "properties": { "name": "Abflugrampe" }, "geometry": { "type": "Point", "coordinates": [ 11.6991946, 48.9872078 ] } },
{ "type": "Feature", "properties": { "name": "Mont-poupet N-NW" }, "geometry": { "type": "Point", "coordinates": [ 5.877523516907129, 46.971574277745688 ] } },
{ "type": "Feature", "properties": { "name": "Mont-poupet NW" }, "geometry": { "type": "Point", "coordinates": [ 5.874230921745986, 46.970113439841327 ] } },
{ "type": "Feature", "properties": { "name": "Mont-poupet S" }, "geometry": { "type": "Point", "coordinates": [ 5.876281725227841, 46.969208785682149 ] } },
{ "type": "Feature", "properties": { "name": "Nyons - garde-grosse" }, "geometry": { "type": "Point", "coordinates": [ 5.154208033594682, 44.33667446729774 ] } },
{ "type": "Feature", "properties": { "name": "Landeplatz Bruhansenhof" }, "geometry": { "type": "Point", "coordinates": [ 8.165191946444809, 48.451104232893435 ] } },
{ "type": "Feature", "properties": { "name": "Fluggelände Neuffen Nord" }, "geometry": { "type": "Point", "coordinates": [ 9.40520727475956, 48.556273015184786 ] } },
{ "type": "Feature", "properties": { "name": "Nord-Rampe" }, "geometry": { "type": "Point", "coordinates": [ 12.685697476230397, 47.733082471308798 ] } },
{ "type": "Feature", "properties": { "name": "Prévondes" }, "geometry": { "type": "Point", "coordinates": [ 6.946481686960657, 46.558347629845507 ] } },
{ "type": "Feature", "properties": { "name": "Moillettes" }, "geometry": { "type": "Point", "coordinates": [ 6.945232522399977, 46.576108062263181 ] } },
{ "type": "Feature", "properties": { "name": "Gleitschirm- und Drachenlandeplatz DCB Ruhpolding" }, "geometry": { "type": "Point", "coordinates": [ 12.665604739025785, 47.752610101857741 ] } },
{ "type": "Feature", "properties": { "name": "Gleitschirm- und Drachenlandeplatz Hochfellnflieger Bergen" }, "geometry": { "type": "Point", "coordinates": [ 12.593117247286328, 47.800396028961394 ] } },
{ "type": "Feature", "properties": { "name": "Südost-Rampe" }, "geometry": { "type": "Point", "coordinates": [ 12.687121140930671, 47.73300934697528 ] } },
{ "type": "Feature", "properties": { "name": "Nordwest-Startplatz" }, "geometry": { "type": "Point", "coordinates": [ 12.68672834676409, 47.733091555418724 ] } },
{ "type": "Feature", "properties": { "name": "Nordstartplatz Unternberg" }, "geometry": { "type": "Point", "coordinates": [ 12.638416537594367, 47.728610478298719 ] } },
{ "type": "Feature", "properties": { "name": "Südstartplatz Unternberg" }, "geometry": { "type": "Point", "coordinates": [ 12.635588468954571, 47.725943733657729 ] } },
{ "type": "Feature", "properties": { "name": "Atterrissage FFVL de Chedde" }, "geometry": { "type": "Point", "coordinates": [ 6.724733893643001, 45.928794539589695 ] } },
{ "type": "Feature", "properties": { "name": "Passy - plaine joux" }, "geometry": { "type": "Point", "coordinates": [ 6.739529689874216, 45.949528328988237 ] } },
{ "type": "Feature", "properties": { "name": "" }, "geometry": { "type": "Point", "coordinates": [ 11.307298129043158, 47.144744622963131 ] } },
{ "type": "Feature", "properties": { "name": "Oststart" }, "geometry": { "type": "Point", "coordinates": [ 12.420936859085415, 47.767419693253387 ] } },
{ "type": "Feature", "properties": { "name": "Landeplatz Hochplatte" }, "geometry": { "type": "Point", "coordinates": [ 12.446242281213634, 47.76563606332293 ] } },
{ "type": "Feature", "properties": { "name": "Nordoststart" }, "geometry": { "type": "Point", "coordinates": [ 12.25073455, 47.7482826 ] } },
{ "type": "Feature", "properties": { "name": "Décollage de parapente de Marlens" }, "geometry": { "type": "Point", "coordinates": [ 6.339536754835871, 45.777345890446377 ] } },
{ "type": "Feature", "properties": { "name": "" }, "geometry": { "type": "Point", "coordinates": [ 11.316119247285666, 46.04184155824494 ] } },
{ "type": "Feature", "properties": { "name": "Unterbaldingen" }, "geometry": { "type": "Point", "coordinates": [ 8.626022600049971, 47.97699096944325 ] } },
{ "type": "Feature", "properties": { "name": "Atterrisage du Cimetière" }, "geometry": { "type": "Point", "coordinates": [ 4.695210270456268, 45.45972716183357 ] } },
{ "type": "Feature", "properties": { "name": "Décollage du Mont Ministre" }, "geometry": { "type": "Point", "coordinates": [ 4.693147673737434, 45.469002035376562 ] } },
{ "type": "Feature", "properties": { "name": "Atterrissage du Parking" }, "geometry": { "type": "Point", "coordinates": [ 4.694211313444401, 45.458657057549708 ] } },
{ "type": "Feature", "properties": { "name": "Atterrissage FFVL de Saint-Pierre-de-Chérennes" }, "geometry": { "type": "Point", "coordinates": [ 5.361261512564959, 45.122958853857817 ] } },
{ "type": "Feature", "properties": { "name": "déco de l'alevoux" }, "geometry": { "type": "Point", "coordinates": [ 5.379047803939168, 45.122243910552172 ] } },
{ "type": "Feature", "properties": { "name": "Südstart" }, "geometry": { "type": "Point", "coordinates": [ 12.558851956078549, 47.761519281239323 ] } },
{ "type": "Feature", "properties": { "name": "décollage de saint Jean en Royans" }, "geometry": { "type": "Point", "coordinates": [ 5.317345099406468, 45.006728210592435 ] } },
{ "type": "Feature", "properties": { "name": "atterrissage de la buisse" }, "geometry": { "type": "Point", "coordinates": [ 5.618929667415019, 45.324333811464875 ] } },
{ "type": "Feature", "properties": { "name": "décollage du Grand Ratz" }, "geometry": { "type": "Point", "coordinates": [ 5.635785288419874, 45.329305654499152 ] } },
{ "type": "Feature", "properties": { "name": "Reinhardsmunster - spillberg" }, "geometry": { "type": "Point", "coordinates": [ 7.311948411530715, 48.677481601551925 ] } },
{ "type": "Feature", "properties": { "name": "Landeplatz Ternberg" }, "geometry": { "type": "Point", "coordinates": [ 14.350699885316164, 47.934586733096488 ] } },
{ "type": "Feature", "properties": { "name": "" }, "geometry": { "type": "Point", "coordinates": [ 8.590347017252565, 47.012486366918601 ] } },
{ "type": "Feature", "properties": { "name": "Chalais" }, "geometry": { "type": "Point", "coordinates": [ 5.661564799779645, 45.292517338663728 ] } },
{ "type": "Feature", "properties": { "name": "Stöckerkopf" }, "geometry": { "type": "Point", "coordinates": [ 8.368345477362183, 48.495488643572187 ] } },
{ "type": "Feature", "properties": { "name": "Stöckerkopf" }, "geometry": { "type": "Point", "coordinates": [ 8.36295249121669, 48.499316597217764 ] } },
{ "type": "Feature", "properties": { "name": "Decollo Sud" }, "geometry": { "type": "Point", "coordinates": [ 12.750709789488791, 43.356570773091015 ] } },
{ "type": "Feature", "properties": { "name": "" }, "geometry": { "type": "Point", "coordinates": [ 5.486259036488116, 45.951339473003827 ] } },
{ "type": "Feature", "properties": { "name": "Roche d'aujoux - mancey - nord-ouest" }, "geometry": { "type": "Point", "coordinates": [ 4.818179424309159, 46.581284324668211 ] } },
{ "type": "Feature", "properties": { "name": "Roche d'aujoux" }, "geometry": { "type": "Point", "coordinates": [ 4.811207919390322, 46.581096466196854 ] } },
{ "type": "Feature", "properties": { "name": "" }, "geometry": { "type": "Point", "coordinates": [ 7.382040199774951, 44.498901156926216 ] } },
{ "type": "Feature", "properties": { "name": "Décollage du Kiosque" }, "geometry": { "type": "Point", "coordinates": [ 6.931023961927391, 48.2720920701476 ] } },
{ "type": "Feature", "properties": { "name": "Startplatz Paragliding" }, "geometry": { "type": "Point", "coordinates": [ 11.696357149846378, 47.427478666591341 ] } },
{ "type": "Feature", "properties": { "name": "Cognin - la lia" }, "geometry": { "type": "Point", "coordinates": [ 5.416002961864715, 45.171409722219884 ] } },
{ "type": "Feature", "properties": { "name": "décollage de la Lia" }, "geometry": { "type": "Point", "coordinates": [ 5.437188241464756, 45.175450307498579 ] } },
{ "type": "Feature", "properties": { "name": "atterrissage de la Touvière" }, "geometry": { "type": "Point", "coordinates": [ 5.132862949498056, 44.897655976026961 ] } },
{ "type": "Feature", "properties": { "name": "décollage des Limouches" }, "geometry": { "type": "Point", "coordinates": [ 5.141585487549401, 44.890618557979586 ] } },
{ "type": "Feature", "properties": { "name": "" }, "geometry": { "type": "Point", "coordinates": [ 11.173754223336488, 45.932451803682468 ] } },
{ "type": "Feature", "properties": { "name": "" }, "geometry": { "type": "Point", "coordinates": [ 12.61576545213053, 43.047275327025538 ] } },
{ "type": "Feature", "properties": { "name": "Lac kir" }, "geometry": { "type": "Point", "coordinates": [ 4.98621094894172, 47.326060537120675 ] } },
{ "type": "Feature", "properties": { "name": "Decollo VoloLiberoTrentino" }, "geometry": { "type": "Point", "coordinates": [ 11.316966157611869, 46.04167935073793 ] } },
{ "type": "Feature", "properties": { "name": "" }, "geometry": { "type": "Point", "coordinates": [ 8.439925149605472, 44.251398425205601 ] } },
{ "type": "Feature", "properties": { "name": "" }, "geometry": { "type": "Point", "coordinates": [ 6.828399606132495, 43.710044477077723 ] } },
{ "type": "Feature", "properties": { "name": "Décollage de Laï Barraï" }, "geometry": { "type": "Point", "coordinates": [ 7.410855678428538, 43.755943525903625 ] } },
{ "type": "Feature", "properties": { "name": "Lachens sud ecole" }, "geometry": { "type": "Point", "coordinates": [ 6.659725238010071, 43.736107785133058 ] } },
{ "type": "Feature", "properties": { "name": "Lachens sud - sud - col du lachens" }, "geometry": { "type": "Point", "coordinates": [ 6.657155260022938, 43.744624862665425 ] } },
{ "type": "Feature", "properties": { "name": "Décollage Sud Col - Parapente" }, "geometry": { "type": "Point", "coordinates": [ 6.651967242143, 43.743526551463866 ] } },
{ "type": "Feature", "properties": { "name": "Lachens ouest - ouest" }, "geometry": { "type": "Point", "coordinates": [ 6.640923475700899, 43.739049460473268 ] } },
{ "type": "Feature", "properties": { "name": "Lachens nord - nord" }, "geometry": { "type": "Point", "coordinates": [ 6.653056671578113, 43.745407341629317 ] } },
{ "type": "Feature", "properties": { "name": "Lachens nord - nord" }, "geometry": { "type": "Point", "coordinates": [ 6.63995489355626, 43.762211523995433 ] } },
{ "type": "Feature", "properties": { "name": "" }, "geometry": { "type": "Point", "coordinates": [ 6.86943725, 43.68986435 ] } },
{ "type": "Feature", "properties": { "name": "" }, "geometry": { "type": "Point", "coordinates": [ 6.837933709081306, 43.702200459490371 ] } },
{ "type": "Feature", "properties": { "name": "Atterrissage FFVL du Marais (Nances)" }, "geometry": { "type": "Point", "coordinates": [ 5.801846969203546, 45.576899029947903 ] } },
{ "type": "Feature", "properties": { "name": "Granvillard" }, "geometry": { "type": "Point", "coordinates": [ 7.094893014510625, 46.544445162605605 ] } },
{ "type": "Feature", "properties": { "name": "Grandvillard" }, "geometry": { "type": "Point", "coordinates": [ 7.113159286323876, 46.544158622158875 ] } },
{ "type": "Feature", "properties": { "name": "Chindonne" }, "geometry": { "type": "Point", "coordinates": [ 6.953765970606255, 46.214844270510326 ] } },
{ "type": "Feature", "properties": { "name": "Monthey Ilettes" }, "geometry": { "type": "Point", "coordinates": [ 6.966592261875308, 46.248360527728707 ] } },
{ "type": "Feature", "properties": { "name": "Decollo Socerb" }, "geometry": { "type": "Point", "coordinates": [ 13.86918592052781, 45.606820022673283 ] } },
{ "type": "Feature", "properties": { "name": "" }, "geometry": { "type": "Point", "coordinates": [ 7.251638045024928, 46.090602341243674 ] } },
{ "type": "Feature", "properties": { "name": "" }, "geometry": { "type": "Point", "coordinates": [ 7.25496729012724, 46.089208215428684 ] } },
{ "type": "Feature", "properties": { "name": "Atterrissage - Saint-Martin-sur-Armançon" }, "geometry": { "type": "Point", "coordinates": [ 4.060035250511862, 47.87271415720987 ] } },
{ "type": "Feature", "properties": { "name": "Startplatz Nord" }, "geometry": { "type": "Point", "coordinates": [ 12.250317050881309, 47.748462570717123 ] } },
{ "type": "Feature", "properties": { "name": "Flight Connection Arlberg" }, "geometry": { "type": "Point", "coordinates": [ 9.727730754317243, 47.213967238385152 ] } },
{ "type": "Feature", "properties": { "name": "Atterrissage FFVL de Samoëns" }, "geometry": { "type": "Point", "coordinates": [ 6.713596381781815, 46.081757650860283 ] } },
{ "type": "Feature", "properties": { "name": "Sighignola Launch" }, "geometry": { "type": "Point", "coordinates": [ 8.993482499535686, 45.967347472424571 ] } },
{ "type": "Feature", "properties": { "name": "Decollo Capanna Bruno" }, "geometry": { "type": "Point", "coordinates": [ 9.06562095215194, 45.943467382987087 ] } },
{ "type": "Feature", "properties": { "name": "Cornizzolo" }, "geometry": { "type": "Point", "coordinates": [ 9.301960059241109, 45.833126819888911 ] } },
{ "type": "Feature", "properties": { "name": "Plan Jacot" }, "geometry": { "type": "Point", "coordinates": [ 6.799007206589008, 46.919018893169302 ] } },
{ "type": "Feature", "properties": { "name": "Gleitschirm-Landeplatz" }, "geometry": { "type": "Point", "coordinates": [ 9.918272675112819, 47.073283368828683 ] } },
{ "type": "Feature", "properties": { "name": "Atterrissage parapente FFVL de Perroix" }, "geometry": { "type": "Point", "coordinates": [ 6.213726855648196, 45.848667464315135 ] } },
{ "type": "Feature", "properties": { "name": "Décollage Parapente FFVL du col de la Forclaz - Montmin" }, "geometry": { "type": "Point", "coordinates": [ 6.246896632072875, 45.814125494369044 ] } },
{ "type": "Feature", "properties": { "name": "Signal de soi" }, "geometry": { "type": "Point", "coordinates": [ 6.916465095845354, 46.185016778528102 ] } },
{ "type": "Feature", "properties": { "name": "Décollage de Bellevue" }, "geometry": { "type": "Point", "coordinates": [ 6.904483834176126, 46.249484846298003 ] } },
{ "type": "Feature", "properties": { "name": "Kobarid paragliding landing area" }, "geometry": { "type": "Point", "coordinates": [ 13.582563339299941, 46.241312265206517 ] } },
{ "type": "Feature", "properties": { "name": "Pedana di decollo Giulio Ravelli" }, "geometry": { "type": "Point", "coordinates": [ 9.385644794809084, 46.193308574652761 ] } },
{ "type": "Feature", "properties": { "name": "Pente école de Marennes" }, "geometry": { "type": "Point", "coordinates": [ 4.903146636548339, 45.614801630863418 ] } },
{ "type": "Feature", "properties": { "name": "" }, "geometry": { "type": "Point", "coordinates": [ 12.857290382337652, 47.721376489668927 ] } },
{ "type": "Feature", "properties": { "name": "L'Embarnier 1" }, "geometry": { "type": "Point", "coordinates": [ 6.947092696314255, 43.72560744975096 ] } },
{ "type": "Feature", "properties": { "name": "L'Embarnier 2" }, "geometry": { "type": "Point", "coordinates": [ 6.943906704543595, 43.722872838879745 ] } },
{ "type": "Feature", "properties": { "name": "Saint-Ambroise" }, "geometry": { "type": "Point", "coordinates": [ 6.959356188741754, 43.726088833011005 ] } },
{ "type": "Feature", "properties": { "name": "Les Abeilles" }, "geometry": { "type": "Point", "coordinates": [ 6.962633026874001, 43.722002847480631 ] } },
{ "type": "Feature", "properties": { "name": "Startplatz Edelweiss S" }, "geometry": { "type": "Point", "coordinates": [ 8.459825771128983, 47.046448625646832 ] } },
{ "type": "Feature", "properties": { "name": "Startplatz Rigi Kulm SW" }, "geometry": { "type": "Point", "coordinates": [ 8.486264033333333, 47.054891566666669 ] } },
{ "type": "Feature", "properties": { "name": "Startplatz Rigi Kulm NO" }, "geometry": { "type": "Point", "coordinates": [ 8.49098167070461, 47.053236783838557 ] } },
{ "type": "Feature", "properties": { "name": "Startplatz Urmiberg S" }, "geometry": { "type": "Point", "coordinates": [ 8.590423561059438, 47.01219593985288 ] } },
{ "type": "Feature", "properties": { "name": "Startplatz Urmiberg S" }, "geometry": { "type": "Point", "coordinates": [ 8.591342115600423, 47.012304457206575 ] } },
{ "type": "Feature", "properties": { "name": "Startplatz Alp Schwand" }, "geometry": { "type": "Point", "coordinates": [ 8.585461740212539, 47.013754542402459 ] } },
{ "type": "Feature", "properties": { "name": "" }, "geometry": { "type": "Point", "coordinates": [ 8.979028623049, 45.927900940440935 ] } },
{ "type": "Feature", "properties": { "name": "Saint-pancrace - le relais" }, "geometry": { "type": "Point", "coordinates": [ 5.920955710417718, 43.899581707719797 ] } },
{ "type": "Feature", "properties": { "name": "Bischlingshöhe Startplatz Ost" }, "geometry": { "type": "Point", "coordinates": [ 13.299175161677766, 47.463968346733644 ] } },
{ "type": "Feature", "properties": { "name": "Drachenflugwiese" }, "geometry": { "type": "Point", "coordinates": [ 9.123689335542059, 48.952205979618284 ] } },
{ "type": "Feature", "properties": { "name": "Atterraggio Bordano" }, "geometry": { "type": "Point", "coordinates": [ 13.112855916136599, 46.306226862288739 ] } },
{ "type": "Feature", "properties": { "name": "Gleitschirm Landeplatz" }, "geometry": { "type": "Point", "coordinates": [ 8.27845606867632, 47.030723449995051 ] } },
{ "type": "Feature", "properties": { "name": "Startplatz Türkheim" }, "geometry": { "type": "Point", "coordinates": [ 9.80551735, 48.590494250000013 ] } },
{ "type": "Feature", "properties": { "name": "Pente école parapente de Saint-Hilaire" }, "geometry": { "type": "Point", "coordinates": [ 5.888507526630433, 45.311178224492046 ] } },
{ "type": "Feature", "properties": { "name": "Startplatz Radsberg" }, "geometry": { "type": "Point", "coordinates": [ 14.403247251678838, 46.573285311487908 ] } },
{ "type": "Feature", "properties": { "name": "Landeplatz Radsberg Hängegleiter" }, "geometry": { "type": "Point", "coordinates": [ 14.408827159910549, 46.559433132335883 ] } },
{ "type": "Feature", "properties": { "name": "" }, "geometry": { "type": "Point", "coordinates": [ 11.869539056690869, 47.180669050287818 ] } },
{ "type": "Feature", "properties": { "name": "Sidan" }, "geometry": { "type": "Point", "coordinates": [ 11.86464716946301, 47.188224213221865 ] } },
{ "type": "Feature", "properties": { "name": "Perler" }, "geometry": { "type": "Point", "coordinates": [ 11.846551514720765, 47.200179429908907 ] } },
{ "type": "Feature", "properties": { "name": "" }, "geometry": { "type": "Point", "coordinates": [ 11.862931, 47.220002066666666 ] } },
{ "type": "Feature", "properties": { "name": "Gleitschirm-Startplatz Schloßberg" }, "geometry": { "type": "Point", "coordinates": [ 8.152297315743011, 48.609681110537188 ] } },
{ "type": "Feature", "properties": { "name": "Gleitschirm-Landeplatz Schloßberg" }, "geometry": { "type": "Point", "coordinates": [ 8.128545977424341, 48.614994553619624 ] } },
{ "type": "Feature", "properties": { "name": "Landeplatz Hängegleiter" }, "geometry": { "type": "Point", "coordinates": [ 16.068049710340208, 47.818672190571696 ] } },
{ "type": "Feature", "properties": { "name": "Terrain d’atterrissage du camping de la Jument Noire" }, "geometry": { "type": "Point", "coordinates": [ 5.747465298157857, 44.457130641403829 ] } },
{ "type": "Feature", "properties": { "name": "Chabre nord" }, "geometry": { "type": "Point", "coordinates": [ 5.7792589, 44.3043361 ] } },
{ "type": "Feature", "properties": { "name": "Chabre nord" }, "geometry": { "type": "Point", "coordinates": [ 5.77610955, 44.30315925 ] } },
{ "type": "Feature", "properties": { "name": "Chabre Sud 2" }, "geometry": { "type": "Point", "coordinates": [ 5.763424487309719, 44.29760790433707 ] } },
{ "type": "Feature", "properties": { "name": "Atterrissage Sud de secours" }, "geometry": { "type": "Point", "coordinates": [ 5.775582931345358, 44.279646403023342 ] } },
{ "type": "Feature", "properties": { "name": "Aterrissage Laragne - camping" }, "geometry": { "type": "Point", "coordinates": [ 5.835157209492674, 44.31163267562934 ] } },
{ "type": "Feature", "properties": { "name": "Saint-geniez - les rayes" }, "geometry": { "type": "Point", "coordinates": [ 6.066484903027669, 44.249120972072774 ] } },
{ "type": "Feature", "properties": { "name": "La batie neuve" }, "geometry": { "type": "Point", "coordinates": [ 6.235489585559266, 44.584056288636816 ] } },
{ "type": "Feature", "properties": { "name": "atterrissage" }, "geometry": { "type": "Point", "coordinates": [ 6.36548388004507, 44.458527714429614 ] } },
{ "type": "Feature", "properties": { "name": "Décollage est sud-est" }, "geometry": { "type": "Point", "coordinates": [ 5.885043981089655, 45.302751483495101 ] } },
{ "type": "Feature", "properties": { "name": "Saint hilaire du touvet - lumbin 2" }, "geometry": { "type": "Point", "coordinates": [ 5.910242117767284, 45.300050909281076 ] } },
{ "type": "Feature", "properties": { "name": "Le pas du Serpaton" }, "geometry": { "type": "Point", "coordinates": [ 5.59077025979061, 44.910415095368947 ] } },
{ "type": "Feature", "properties": { "name": "" }, "geometry": { "type": "Point", "coordinates": [ 5.614104751246897, 44.918930702971252 ] } },
{ "type": "Feature", "properties": { "name": "Area di decollo per parapendio di Monteripoli" }, "geometry": { "type": "Point", "coordinates": [ 12.807240998562717, 41.941017372862085 ] } },
{ "type": "Feature", "properties": { "name": "Gleitschirm Landeplatz Grossitz" }, "geometry": { "type": "Point", "coordinates": [ 8.397671903385771, 46.904933430601595 ] } },
{ "type": "Feature", "properties": { "name": "Charezier - motte de gourdaine" }, "geometry": { "type": "Point", "coordinates": [ 5.731883270607868, 46.620281306976061 ] } },
{ "type": "Feature", "properties": { "name": "Décollage FFVL de Port" }, "geometry": { "type": "Point", "coordinates": [ 5.573628978286288, 46.158659524984799 ] } },
{ "type": "Feature", "properties": { "name": "" }, "geometry": { "type": "Point", "coordinates": [ 5.564350971543135, 46.159520199186886 ] } },
{ "type": "Feature", "properties": { "name": "" }, "geometry": { "type": "Point", "coordinates": [ 10.9586566, 46.5291495 ] } },
{ "type": "Feature", "properties": { "name": "Ispagnac" }, "geometry": { "type": "Point", "coordinates": [ 3.527791929926837, 44.373838583802268 ] } },
{ "type": "Feature", "properties": { "name": "Décollage du Mont Guillaume" }, "geometry": { "type": "Point", "coordinates": [ 6.432549979159958, 44.568518959901525 ] } },
{ "type": "Feature", "properties": { "name": "" }, "geometry": { "type": "Point", "coordinates": [ 8.286447863388474, 46.907257188949018 ] } },
{ "type": "Feature", "properties": { "name": "Rotenfluh Startplatz 1" }, "geometry": { "type": "Point", "coordinates": [ 8.700705729841191, 47.017472268907547 ] } },
{ "type": "Feature", "properties": { "name": "Landeplatz Rickenbach SZ" }, "geometry": { "type": "Point", "coordinates": [ 8.6702094, 47.012234 ] } },
{ "type": "Feature", "properties": { "name": "" }, "geometry": { "type": "Point", "coordinates": [ 9.334497298411184, 47.060236444055796 ] } },
{ "type": "Feature", "properties": { "name": "" }, "geometry": { "type": "Point", "coordinates": [ 9.352609130652883, 47.08830537285975 ] } },
{ "type": "Feature", "properties": { "name": "Übungshang AustriaFly" }, "geometry": { "type": "Point", "coordinates": [ 13.270304157464356, 47.460998850213088 ] } },
{ "type": "Feature", "properties": { "name": "Landing Zone" }, "geometry": { "type": "Point", "coordinates": [ 13.269561120575416, 47.459576167990548 ] } },
{ "type": "Feature", "properties": { "name": "" }, "geometry": { "type": "Point", "coordinates": [ 13.897227552744333, 47.425156987306529 ] } },
{ "type": "Feature", "properties": { "name": "Startplatz Südstart Gipfelplateau" }, "geometry": { "type": "Point", "coordinates": [ 13.82705472870901, 47.458803955702024 ] } },
{ "type": "Feature", "properties": { "name": "Startplatz Nord Gipfel" }, "geometry": { "type": "Point", "coordinates": [ 13.828175904469827, 47.45950863071338 ] } },
{ "type": "Feature", "properties": { "name": "Weststartplatz" }, "geometry": { "type": "Point", "coordinates": [ 13.823457349699019, 47.458594306808102 ] } },
{ "type": "Feature", "properties": { "name": "Notlandeplatz Gröbming Winkl Alte Stoderstraße" }, "geometry": { "type": "Point", "coordinates": [ 13.866121514773736, 47.44607436166411 ] } },
{ "type": "Feature", "properties": { "name": "Landeplatz Haus" }, "geometry": { "type": "Point", "coordinates": [ 13.760599756383737, 47.407883963282138 ] } },
{ "type": "Feature", "properties": { "name": "Atterraggio in vetta Monte Valinis" }, "geometry": { "type": "Point", "coordinates": [ 12.806875007977956, 46.230923094606744 ] } },
{ "type": "Feature", "properties": { "name": "Decollo Monte Valinis" }, "geometry": { "type": "Point", "coordinates": [ 12.806852750141269, 46.23033135695114 ] } },
{ "type": "Feature", "properties": { "name": "Atterraggio Meduno" }, "geometry": { "type": "Point", "coordinates": [ 12.819671476850241, 46.205979618649003 ] } },
{ "type": "Feature", "properties": { "name": "Decollo dalla vetta Monte Valinis" }, "geometry": { "type": "Point", "coordinates": [ 12.800224901307457, 46.234349673287859 ] } },
{ "type": "Feature", "properties": { "name": "Poupet - La Côte" }, "geometry": { "type": "Point", "coordinates": [ 5.843817234184505, 46.942288162737675 ] } },
{ "type": "Feature", "properties": { "name": "Antenne Bouygues" }, "geometry": { "type": "Point", "coordinates": [ 4.275811417829932, 44.12157644913249 ] } },
{ "type": "Feature", "properties": { "name": "Mont bouquet - sud - la verriere" }, "geometry": { "type": "Point", "coordinates": [ 4.278619940747676, 44.121979193548931 ] } },
{ "type": "Feature", "properties": { "name": "Mont bouquet - la vierge" }, "geometry": { "type": "Point", "coordinates": [ 4.285493083934186, 44.131928275548397 ] } },
{ "type": "Feature", "properties": { "name": "Decollo Parapendio San Giuliano Terme" }, "geometry": { "type": "Point", "coordinates": [ 10.441904344541539, 43.770901768420281 ] } },
{ "type": "Feature", "properties": { "name": "Atterraggio Parapendio San Giuliano Terme" }, "geometry": { "type": "Point", "coordinates": [ 10.433865694517493, 43.769499659930631 ] } },
{ "type": "Feature", "properties": { "name": "Decollo parapendio Auberge Inferiore" }, "geometry": { "type": "Point", "coordinates": [ 6.841305288931388, 45.051248599642527 ] } },
{ "type": "Feature", "properties": { "name": "Decollo parapendio Auberge Superiore" }, "geometry": { "type": "Point", "coordinates": [ 6.834389056399069, 45.051227295907111 ] } },
{ "type": "Feature", "properties": { "name": "Area atterraggio con parapendio" }, "geometry": { "type": "Point", "coordinates": [ 6.839004046768332, 45.044203843694774 ] } },
{ "type": "Feature", "properties": { "name": "Atterraggio di emergenza parapendio" }, "geometry": { "type": "Point", "coordinates": [ 6.779369991476824, 45.045619609760358 ] } },
{ "type": "Feature", "properties": { "name": "Atterraggio per parapendio" }, "geometry": { "type": "Point", "coordinates": [ 6.789972974793527, 45.043518469831149 ] } },
{ "type": "Feature", "properties": { "name": "Atterraggio emergenza parapendio" }, "geometry": { "type": "Point", "coordinates": [ 6.836425658994532, 45.023665798707647 ] } },
{ "type": "Feature", "properties": { "name": "Area atterraggio emergenza parapendio" }, "geometry": { "type": "Point", "coordinates": [ 6.668576044028257, 45.049836655084192 ] } },
{ "type": "Feature", "properties": { "name": "" }, "geometry": { "type": "Point", "coordinates": [ 11.695546606631209, 46.786106509689738 ] } },
{ "type": "Feature", "properties": { "name": "Rodeneck Paragleiter Startplatz\/Fröllerberg - Sito di lancio per parapendio di Rodengo\/Monte Frella" }, "geometry": { "type": "Point", "coordinates": [ 11.718905468475588, 46.789922432497903 ] } },
{ "type": "Feature", "properties": { "name": "" }, "geometry": { "type": "Point", "coordinates": [ 11.714717770981867, 46.789281611788077 ] } },
{ "type": "Feature", "properties": { "name": "Saint-geniez" }, "geometry": { "type": "Point", "coordinates": [ 6.063415797338459, 44.244220297815431 ] } },
{ "type": "Feature", "properties": { "name": "Atterrisage Parapente" }, "geometry": { "type": "Point", "coordinates": [ 6.054781180562326, 44.245839395374162 ] } },
{ "type": "Feature", "properties": { "name": "Atterrisage Delta" }, "geometry": { "type": "Point", "coordinates": [ 6.059012452211639, 44.239063751334804 ] } },
{ "type": "Feature", "properties": { "name": "Décollage FFVL des Mémises" }, "geometry": { "type": "Point", "coordinates": [ 6.724838899999988, 46.38005175 ] } },
{ "type": "Feature", "properties": { "name": "Décollage FFVL des Mémises \"le Lanvanchy\"" }, "geometry": { "type": "Point", "coordinates": [ 6.727910300654764, 46.381227061141551 ] } },
{ "type": "Feature", "properties": { "name": "Décollage FFVL Le Hucel Thollon" }, "geometry": { "type": "Point", "coordinates": [ 6.70409855, 46.3989762 ] } },
{ "type": "Feature", "properties": { "name": "" }, "geometry": { "type": "Point", "coordinates": [ 7.170750943617588, 46.618048321418435 ] } },
{ "type": "Feature", "properties": { "name": "Drachenflieger - Landeplatz" }, "geometry": { "type": "Point", "coordinates": [ 13.76667889149774, 47.640256350018177 ] } },
{ "type": "Feature", "properties": { "name": "Landeplatz Mittelleimbach" }, "geometry": { "type": "Point", "coordinates": [ 8.506468579765938, 47.325478640580201 ] } },
{ "type": "Feature", "properties": { "name": "Chamonix - plan de l'aiguille Ouest" }, "geometry": { "type": "Point", "coordinates": [ 6.883697176872868, 45.902285824767709 ] } },
{ "type": "Feature", "properties": { "name": "Startplatz West" }, "geometry": { "type": "Point", "coordinates": [ 8.40649857304768, 48.756412993053608 ] } },
{ "type": "Feature", "properties": { "name": "Vzletišče Malič" }, "geometry": { "type": "Point", "coordinates": [ 15.205697317743873, 46.182143593038958 ] } },
{ "type": "Feature", "properties": { "name": "Tanargue - col de meyrand" }, "geometry": { "type": "Point", "coordinates": [ 4.076123953525773, 44.606718601941658 ] } },
{ "type": "Feature", "properties": { "name": "Les Valettes" }, "geometry": { "type": "Point", "coordinates": [ 7.004898511592457, 43.700262803626309 ] } },
{ "type": "Feature", "properties": { "name": "Kopitnik" }, "geometry": { "type": "Point", "coordinates": [ 13.776479210600149, 45.945560996395521 ] } },
{ "type": "Feature", "properties": { "name": "" }, "geometry": { "type": "Point", "coordinates": [ 14.038862816612827, 46.33148294991696 ] } },
{ "type": "Feature", "properties": { "name": "Les esserts" }, "geometry": { "type": "Point", "coordinates": [ 6.242506052085263, 46.594083986635177 ] } },
{ "type": "Feature", "properties": { "name": "l'aouille" }, "geometry": { "type": "Point", "coordinates": [ 6.334816582486487, 46.662803408955142 ] } },
{ "type": "Feature", "properties": { "name": "Mont du lac" }, "geometry": { "type": "Point", "coordinates": [ 6.336252618399471, 46.661216361777399 ] } },
{ "type": "Feature", "properties": { "name": "Les Seignots" }, "geometry": { "type": "Point", "coordinates": [ 6.33820591040177, 46.759748123632136 ] } },
{ "type": "Feature", "properties": { "name": "diablerets" }, "geometry": { "type": "Point", "coordinates": [ 7.207430427003326, 46.324369991818585 ] } },
{ "type": "Feature", "properties": { "name": "Noirmont - piste rouge n°2" }, "geometry": { "type": "Point", "coordinates": [ 6.104903893330055, 46.480485748537369 ] } },
{ "type": "Feature", "properties": { "name": "Noirmont - piste noire n°1" }, "geometry": { "type": "Point", "coordinates": [ 6.106683610240858, 46.487384178146129 ] } },
{ "type": "Feature", "properties": { "name": "" }, "geometry": { "type": "Point", "coordinates": [ 6.935406790051612, 46.513556248181217 ] } },
{ "type": "Feature", "properties": { "name": "Décollage de la Dent Percée" }, "geometry": { "type": "Point", "coordinates": [ 5.595037397625457, 45.099331491091512 ] } },
{ "type": "Feature", "properties": { "name": "Chamoux - montendry" }, "geometry": { "type": "Point", "coordinates": [ 6.252560434152586, 45.5293427104084 ] } },
{ "type": "Feature", "properties": { "name": "Attérrissage FFVL de Chamoux" }, "geometry": { "type": "Point", "coordinates": [ 6.215573335211273, 45.540691670588686 ] } },
{ "type": "Feature", "properties": { "name": "Décollage deltaplane de Montmin" }, "geometry": { "type": "Point", "coordinates": [ 6.245938224672089, 45.813429220260112 ] } },
{ "type": "Feature", "properties": { "name": "Zone de gonflage FFVL de Doussard" }, "geometry": { "type": "Point", "coordinates": [ 6.222701045046662, 45.780398425905489 ] } },
{ "type": "Feature", "properties": { "name": "Zone atterrissage Ceillac" }, "geometry": { "type": "Point", "coordinates": [ 6.780369721068359, 44.664079592343946 ] } },
{ "type": "Feature", "properties": { "name": "Euroflugschule Engelberg" }, "geometry": { "type": "Point", "coordinates": [ 8.425828931982897, 46.809381778344154 ] } },
{ "type": "Feature", "properties": { "name": "Atterraggio Godo" }, "geometry": { "type": "Point", "coordinates": [ 13.14031475736609, 46.267950979553994 ] } },
{ "type": "Feature", "properties": { "name": "Montagne de la lance - mt rachas et montagne de la lance" }, "geometry": { "type": "Point", "coordinates": [ 5.034803487182975, 44.486959671002857 ] } },
{ "type": "Feature", "properties": { "name": "Decollo Monte Soratte" }, "geometry": { "type": "Point", "coordinates": [ 12.501819741771794, 42.245517478152784 ] } },
{ "type": "Feature", "properties": { "name": "" }, "geometry": { "type": "Point", "coordinates": [ 15.230507022920873, 47.567145205514301 ] } },
{ "type": "Feature", "properties": { "name": "" }, "geometry": { "type": "Point", "coordinates": [ 8.643400276020296, 45.911675265377376 ] } },
{ "type": "Feature", "properties": { "name": "Decollo Parapendio" }, "geometry": { "type": "Point", "coordinates": [ 7.792613390676173, 44.089729556453946 ] } },
{ "type": "Feature", "properties": { "name": "Atterraggio parapendio" }, "geometry": { "type": "Point", "coordinates": [ 7.809687107673262, 44.078143575310222 ] } },
{ "type": "Feature", "properties": { "name": "Malleval - pas de l'ane" }, "geometry": { "type": "Point", "coordinates": [ 5.434832480783471, 45.145386426902995 ] } },
{ "type": "Feature", "properties": { "name": "" }, "geometry": { "type": "Point", "coordinates": [ 8.535087189334508, 45.958063616437208 ] } },
{ "type": "Feature", "properties": { "name": "Décollage FFVL La Bourgeoise" }, "geometry": { "type": "Point", "coordinates": [ 6.71977809930873, 46.11499599551798 ] } },
{ "type": "Feature", "properties": { "name": "Atterrissage de Saint-Martin" }, "geometry": { "type": "Point", "coordinates": [ 5.446542328777645, 45.021372490036342 ] } },
{ "type": "Feature", "properties": { "name": "décollage \"le couteau\"" }, "geometry": { "type": "Point", "coordinates": [ 6.499091413695822, 46.293613132542696 ] } },
{ "type": "Feature", "properties": { "name": "Aire de décollage des parapentes" }, "geometry": { "type": "Point", "coordinates": [ 5.983809684611543, 47.208526167170291 ] } },
{ "type": "Feature", "properties": { "name": "Décollage Col d'Ey haut" }, "geometry": { "type": "Point", "coordinates": [ 5.282391664877025, 44.309320043309796 ] } },
{ "type": "Feature", "properties": { "name": "Stettelberg Landeplatz" }, "geometry": { "type": "Point", "coordinates": [ 9.071904358430263, 47.809037366489605 ] } },
{ "type": "Feature", "properties": { "name": "Paragliding Startplatz - Decollo S. Vigilio" }, "geometry": { "type": "Point", "coordinates": [ 11.118098083113255, 46.624519069976365 ] } },
{ "type": "Feature", "properties": { "name": "Paragliding Landeplatz - Atterraggio S. Vigilio" }, "geometry": { "type": "Point", "coordinates": [ 11.147900726790796, 46.630639886674373 ] } },
{ "type": "Feature", "properties": { "name": "" }, "geometry": { "type": "Point", "coordinates": [ 7.642050585682022, 45.418182151166306 ] } },
{ "type": "Feature", "properties": { "name": "Decollo Campanara" }, "geometry": { "type": "Point", "coordinates": [ 11.502314381244961, 45.779292608459095 ] } },
{ "type": "Feature", "properties": { "name": "Atterraggio Colombare" }, "geometry": { "type": "Point", "coordinates": [ 11.438331376908303, 45.773191298030596 ] } },
{ "type": "Feature", "properties": { "name": "" }, "geometry": { "type": "Point", "coordinates": [ 8.250681349246566, 46.981766777884765 ] } },
{ "type": "Feature", "properties": { "name": "Paragleiter Landeplatz - Günter-Bürbaumer-Platz" }, "geometry": { "type": "Point", "coordinates": [ 14.744103493343045, 47.956611037135573 ] } },
{ "type": "Feature", "properties": { "name": "" }, "geometry": { "type": "Point", "coordinates": [ 14.201816977438625, 45.285148521146802 ] } },
{ "type": "Feature", "properties": { "name": "" }, "geometry": { "type": "Point", "coordinates": [ 9.071083166666666, 44.8183888 ] } },
{ "type": "Feature", "properties": { "name": "" }, "geometry": { "type": "Point", "coordinates": [ 9.073283898424828, 44.816492930888536 ] } },
{ "type": "Feature", "properties": { "name": "Atterrissage de la Malcombe" }, "geometry": { "type": "Point", "coordinates": [ 5.991161616779425, 47.223310648333815 ] } },
{ "type": "Feature", "properties": { "name": "Atterrissage de Monfaucon" }, "geometry": { "type": "Point", "coordinates": [ 6.064904912103474, 47.242321195758251 ] } },
{ "type": "Feature", "properties": { "name": "Landeplatz DGCW" }, "geometry": { "type": "Point", "coordinates": [ 9.58149840621196, 48.57722789580378 ] } },
{ "type": "Feature", "properties": { "name": "Landeplatz DGCW" }, "geometry": { "type": "Point", "coordinates": [ 9.577908127513771, 48.579537791580009 ] } },
{ "type": "Feature", "properties": { "name": "Landeplatz DGCW" }, "geometry": { "type": "Point", "coordinates": [ 9.593257521143229, 48.578121020403124 ] } },
{ "type": "Feature", "properties": { "name": "Startplatz DGCW" }, "geometry": { "type": "Point", "coordinates": [ 9.592837272119827, 48.577502785560768 ] } },
{ "type": "Feature", "properties": { "name": "Kohleckle" }, "geometry": { "type": "Point", "coordinates": [ 7.96660766394835, 48.413627043361203 ] } },
{ "type": "Feature", "properties": { "name": "Atterrissage de saint-Jean" }, "geometry": { "type": "Point", "coordinates": [ 5.395518471814595, 44.039649544155573 ] } },
{ "type": "Feature", "properties": { "name": "Atterrissage FFVL Orcier - Les Grands Champs" }, "geometry": { "type": "Point", "coordinates": [ 6.485040550606717, 46.318725271898494 ] } },
{ "type": "Feature", "properties": { "name": "Roches des cuzets" }, "geometry": { "type": "Point", "coordinates": [ 4.194081336797976, 44.895762715226837 ] } },
{ "type": "Feature", "properties": { "name": "" }, "geometry": { "type": "Point", "coordinates": [ 10.399312312112835, 47.268202205714431 ] } },
{ "type": "Feature", "properties": { "name": "Einkorn Landeplatz" }, "geometry": { "type": "Point", "coordinates": [ 9.7674656, 49.0876127 ] } },
{ "type": "Feature", "properties": { "name": "Absprungrampe Einkorn" }, "geometry": { "type": "Point", "coordinates": [ 9.775402746074956, 49.090024432121197 ] } },
{ "type": "Feature", "properties": { "name": "Paragliding Start" }, "geometry": { "type": "Point", "coordinates": [ 9.326213363824069, 47.291403121022803 ] } },
{ "type": "Feature", "properties": { "name": "" }, "geometry": { "type": "Point", "coordinates": [ 9.33317363106217, 47.292688457006591 ] } },
{ "type": "Feature", "properties": { "name": "Startplatz Balderen" }, "geometry": { "type": "Point", "coordinates": [ 8.500680782329113, 47.322485036104453 ] } },
{ "type": "Feature", "properties": { "name": "Décollage DELTA est sud-est" }, "geometry": { "type": "Point", "coordinates": [ 5.883677666179303, 45.301226556126835 ] } },
{ "type": "Feature", "properties": { "name": "Hüebli" }, "geometry": { "type": "Point", "coordinates": [ 8.927092763837051, 47.294350814587467 ] } },
{ "type": "Feature", "properties": { "name": "Scheidegg" }, "geometry": { "type": "Point", "coordinates": [ 8.943072220749769, 47.303978903223445 ] } },
{ "type": "Feature", "properties": { "name": "" }, "geometry": { "type": "Point", "coordinates": [ 4.38083629605339, 45.851876786086564 ] } },
{ "type": "Feature", "properties": { "name": "Gleitschirm-Startplatz" }, "geometry": { "type": "Point", "coordinates": [ 9.400078479875232, 49.324601038894301 ] } },
{ "type": "Feature", "properties": { "name": "Cote2000" }, "geometry": { "type": "Point", "coordinates": [ 5.567562990744259, 45.030034054797909 ] } },
{ "type": "Feature", "properties": { "name": "Atterrissage FFVL Télécabine Cote2000" }, "geometry": { "type": "Point", "coordinates": [ 5.557324993913336, 45.042145839548084 ] } },
{ "type": "Feature", "properties": { "name": "Bisanne - sud" }, "geometry": { "type": "Point", "coordinates": [ 6.507233951562109, 45.746873509770808 ] } },
{ "type": "Feature", "properties": { "name": "Décollage parapente de Coche Cabane" }, "geometry": { "type": "Point", "coordinates": [ 6.245617735617863, 45.81809111807307 ] } },
{ "type": "Feature", "properties": { "name": "" }, "geometry": { "type": "Point", "coordinates": [ 5.445389081059299, 43.891345569905823 ] } },
{ "type": "Feature", "properties": { "name": "Landeplatz Aich" }, "geometry": { "type": "Point", "coordinates": [ 13.805449876553096, 47.418587909214096 ] } },
{ "type": "Feature", "properties": { "name": "" }, "geometry": { "type": "Point", "coordinates": [ 11.154734405076155, 46.622530822049988 ] } },
{ "type": "Feature", "properties": { "name": "Atterissage de Vallouise" }, "geometry": { "type": "Point", "coordinates": [ 6.48909201778266, 44.841828075029419 ] } },
{ "type": "Feature", "properties": { "name": "Décollage de Puy Aillaud (S)" }, "geometry": { "type": "Point", "coordinates": [ 6.478115424548502, 44.850126505333485 ] } },
{ "type": "Feature", "properties": { "name": "" }, "geometry": { "type": "Point", "coordinates": [ 7.463387232154175, 45.161809299834168 ] } },
{ "type": "Feature", "properties": { "name": "Paragleiter Landeplatz Lüsen - Sito di atterraggio parapendio di Luson" }, "geometry": { "type": "Point", "coordinates": [ 11.748783620365014, 46.747677568478174 ] } },
{ "type": "Feature", "properties": { "name": "Aire Parapente des Baronnies" }, "geometry": { "type": "Point", "coordinates": [ 5.510485388377409, 44.203178811622593 ] } },
{ "type": "Feature", "properties": { "name": "Atterrissage FFVL St-Pierre d'Allevard" }, "geometry": { "type": "Point", "coordinates": [ 6.055155249042205, 45.376716717411874 ] } },
{ "type": "Feature", "properties": { "name": "Décollage du Bouant" }, "geometry": { "type": "Point", "coordinates": [ 5.839127751280234, 46.161051751479732 ] } },
{ "type": "Feature", "properties": { "name": "Sorgia - la charmante" }, "geometry": { "type": "Point", "coordinates": [ 5.856076305606701, 46.13814646989082 ] } },
{ "type": "Feature", "properties": { "name": "Sorgia - les pres geles" }, "geometry": { "type": "Point", "coordinates": [ 5.824233258844074, 46.139725391686838 ] } },
{ "type": "Feature", "properties": { "name": "Décollage Catray" }, "geometry": { "type": "Point", "coordinates": [ 5.756807488289112, 46.110441176187877 ] } },
{ "type": "Feature", "properties": { "name": "La vierge - notre dame des roches" }, "geometry": { "type": "Point", "coordinates": [ 4.717232571166925, 46.460351760859361 ] } },
{ "type": "Feature", "properties": { "name": "Startplatz 1 Nova Stoba" }, "geometry": { "type": "Point", "coordinates": [ 9.993671836072876, 46.980589487259415 ] } },
{ "type": "Feature", "properties": { "name": "Startplatz 2 Nova Stoba" }, "geometry": { "type": "Point", "coordinates": [ 9.993669992169451, 46.979620185118343 ] } },
{ "type": "Feature", "properties": { "name": "Startplatz Sonnenbahn Gleitschirmfliegen" }, "geometry": { "type": "Point", "coordinates": [ 9.964123642857139, 46.985505118402102 ] } },
{ "type": "Feature", "properties": { "name": "Atterraggio Valcava" }, "geometry": { "type": "Point", "coordinates": [ 9.494301270875095, 45.758097689474369 ] } },
{ "type": "Feature", "properties": { "name": "Atterraggio Valcava Scuola" }, "geometry": { "type": "Point", "coordinates": [ 9.495127648983475, 45.754762195626277 ] } },
{ "type": "Feature", "properties": { "name": "Area di ripiegamento" }, "geometry": { "type": "Point", "coordinates": [ 9.495591154688935, 45.754476638178311 ] } },
{ "type": "Feature", "properties": { "name": "Site de vol libre Chassenoud" }, "geometry": { "type": "Point", "coordinates": [ 4.705391341688587, 45.490369144984804 ] } },
{ "type": "Feature", "properties": { "name": "" }, "geometry": { "type": "Point", "coordinates": [ 7.77322675691067, 46.710063657993445 ] } },
{ "type": "Feature", "properties": { "name": "Cuges-les-pins - pey gros" }, "geometry": { "type": "Point", "coordinates": [ 5.66850568578604, 43.271645357750955 ] } },
{ "type": "Feature", "properties": { "name": "Paragleiter Landeplatz - Sito di atterraggio per parapendio" }, "geometry": { "type": "Point", "coordinates": [ 11.200610748037748, 46.724773769977382 ] } },
{ "type": "Feature", "properties": { "name": "" }, "geometry": { "type": "Point", "coordinates": [ 12.784327357215648, 46.837735629812471 ] } },
{ "type": "Feature", "properties": { "name": "Aussenlandeplatz Altendorf" }, "geometry": { "type": "Point", "coordinates": [ 8.832753909580491, 47.18877506353347 ] } },
{ "type": "Feature", "properties": { "name": "Alto Cavallaria" }, "geometry": { "type": "Point", "coordinates": [ 7.80752105103408, 45.520388989598246 ] } },
{ "type": "Feature", "properties": { "name": "Felci" }, "geometry": { "type": "Point", "coordinates": [ 7.809850807681083, 45.507127420053493 ] } },
{ "type": "Feature", "properties": { "name": "Cavallaria" }, "geometry": { "type": "Point", "coordinates": [ 7.828373532262576, 45.498322067395264 ] } },
{ "type": "Feature", "properties": { "name": "Weissenstein Launch" }, "geometry": { "type": "Point", "coordinates": [ 7.509617801751382, 47.251042504089639 ] } },
{ "type": "Feature", "properties": { "name": "Boetzingenmoos landing" }, "geometry": { "type": "Point", "coordinates": [ 7.300246934979475, 47.163964816253362 ] } },
{ "type": "Feature", "properties": { "name": "Buetzen takeoff" }, "geometry": { "type": "Point", "coordinates": [ 7.391520825622839, 47.222705683225996 ] } },
{ "type": "Feature", "properties": { "name": "Startplatz Schwaengimatt" }, "geometry": { "type": "Point", "coordinates": [ 7.674469737649861, 47.289088890482851 ] } },
{ "type": "Feature", "properties": { "name": "Startplatz Schwaengimatt" }, "geometry": { "type": "Point", "coordinates": [ 7.677607845534634, 47.291299210135826 ] } },
{ "type": "Feature", "properties": { "name": "" }, "geometry": { "type": "Point", "coordinates": [ 13.719483340523901, 45.942810042862696 ] } },
{ "type": "Feature", "properties": { "name": "Atterrissage parapente de Courtet" }, "geometry": { "type": "Point", "coordinates": [ 5.780427519658075, 44.775018969887824 ] } },
{ "type": "Feature", "properties": { "name": "Echenoz-la-meline - bois de breuleux" }, "geometry": { "type": "Point", "coordinates": [ 6.128159844753697, 47.600597595987068 ] } },
{ "type": "Feature", "properties": { "name": "Chariez - camp de cesar sud-ouest" }, "geometry": { "type": "Point", "coordinates": [ 6.089812474697032, 47.622257936816595 ] } },
{ "type": "Feature", "properties": { "name": "Seeleiten Startplatz" }, "geometry": { "type": "Point", "coordinates": [ 13.573269727944574, 47.862520328002475 ] } },
{ "type": "Feature", "properties": { "name": "Seeleiten Landeplatz" }, "geometry": { "type": "Point", "coordinates": [ 13.568863438041465, 47.873238022828595 ] } },
{ "type": "Feature", "properties": { "name": "Orcieres - base de loisirs" }, "geometry": { "type": "Point", "coordinates": [ 6.316453312173998, 44.678382261124881 ] } },
{ "type": "Feature", "properties": { "name": "Les Burnes" }, "geometry": { "type": "Point", "coordinates": [ 6.13232177236445, 46.42932796123501 ] } },
{ "type": "Feature", "properties": { "name": "atterrissage FFVL Mieussy \"la ferme\"" }, "geometry": { "type": "Point", "coordinates": [ 6.525149990282571, 46.130023075363141 ] } },
{ "type": "Feature", "properties": { "name": "Super morzine" }, "geometry": { "type": "Point", "coordinates": [ 6.722278555236509, 46.19102499162517 ] } },
{ "type": "Feature", "properties": { "name": "Atterissage de parapente de Cortibot" }, "geometry": { "type": "Point", "coordinates": [ 6.441491884539851, 45.905863269069599 ] } },
{ "type": "Feature", "properties": { "name": "Atterrissage FFVL Les Potais" }, "geometry": { "type": "Point", "coordinates": [ 6.461927964228897, 45.935590483123541 ] } },
{ "type": "Feature", "properties": { "name": "Décollage FFVL du Mont-Lachat" }, "geometry": { "type": "Point", "coordinates": [ 6.476065896393854, 45.960384285007159 ] } },
{ "type": "Feature", "properties": { "name": "Mont-Lachat SW" }, "geometry": { "type": "Point", "coordinates": [ 6.476404385523108, 45.958004330856369 ] } },
{ "type": "Feature", "properties": { "name": "Atterrissage Chalais" }, "geometry": { "type": "Point", "coordinates": [ 7.513333177721714, 46.27176450357716 ] } },
{ "type": "Feature", "properties": { "name": "Décollage parapente de Sainte-Marie" }, "geometry": { "type": "Point", "coordinates": [ 4.60838523461084, 46.084110519067913 ] } },
{ "type": "Feature", "properties": { "name": "Atterrissage parapente de Sainte-Marie" }, "geometry": { "type": "Point", "coordinates": [ 4.616271517856467, 46.0774414814667 ] } },
{ "type": "Feature", "properties": { "name": "" }, "geometry": { "type": "Point", "coordinates": [ 11.565262860006563, 47.333477163280087 ] } },
{ "type": "Feature", "properties": { "name": "Stettelberg" }, "geometry": { "type": "Point", "coordinates": [ 9.075643737126013, 47.813583392790349 ] } },
{ "type": "Feature", "properties": { "name": "Landeplatz Spittal" }, "geometry": { "type": "Point", "coordinates": [ 13.483710855698531, 46.792752232325029 ] } },
{ "type": "Feature", "properties": { "name": "Atterrissage FFVL de La Richardière" }, "geometry": { "type": "Point", "coordinates": [ 5.832063716935937, 45.149273179967579 ] } },
{ "type": "Feature", "properties": { "name": "Atterrissage Vol Libre de Saint-Gervais-les-Bains" }, "geometry": { "type": "Point", "coordinates": [ 6.712025159384222, 45.884389023529032 ] } },
{ "type": "Feature", "properties": { "name": "" }, "geometry": { "type": "Point", "coordinates": [ 7.634441736659108, 45.40278237650179 ] } },
{ "type": "Feature", "properties": { "name": "" }, "geometry": { "type": "Point", "coordinates": [ 7.647150476498206, 45.438735336220127 ] } },
{ "type": "Feature", "properties": { "name": "" }, "geometry": { "type": "Point", "coordinates": [ 8.075314304782966, 45.660368602517821 ] } },
{ "type": "Feature", "properties": { "name": "Breitenbach - pelage - sud-est" }, "geometry": { "type": "Point", "coordinates": [ 7.282969583319252, 48.383076227528392 ] } },
{ "type": "Feature", "properties": { "name": "Paragleiter Startplatz Grünberg" }, "geometry": { "type": "Point", "coordinates": [ 13.818012697438432, 47.898364635195001 ] } },
{ "type": "Feature", "properties": { "name": "atterrissage FFVL du lac de Passy" }, "geometry": { "type": "Point", "coordinates": [ 6.661240475227222, 45.914764073088506 ] } },
{ "type": "Feature", "properties": { "name": "Passy - plaine joux - Marlioz Batistock" }, "geometry": { "type": "Point", "coordinates": [ 6.706208072898895, 45.915759609546427 ] } },
{ "type": "Feature", "properties": { "name": "Décollage du Col de la sambuy" }, "geometry": { "type": "Point", "coordinates": [ 6.272204379487212, 45.698593792363852 ] } },
{ "type": "Feature", "properties": { "name": "Les 2 alpes" }, "geometry": { "type": "Point", "coordinates": [ 6.127074214125932, 44.998881732378891 ] } },
{ "type": "Feature", "properties": { "name": "Venetflieger Paragleiter Landeplatz" }, "geometry": { "type": "Point", "coordinates": [ 10.580938132489299, 47.153961526990443 ] } },
{ "type": "Feature", "properties": { "name": "" }, "geometry": { "type": "Point", "coordinates": [ 16.075544996659847, 46.989894700542656 ] } },
{ "type": "Feature", "properties": { "name": "Pompignan taillade" }, "geometry": { "type": "Point", "coordinates": [ 3.85607746765121, 43.880794366109619 ] } },
{ "type": "Feature", "properties": { "name": "Digne-les-bains - l'andran" }, "geometry": { "type": "Point", "coordinates": [ 6.233467066152141, 44.114478529712144 ] } },
{ "type": "Feature", "properties": { "name": "Décollage FFVL de Très-le-mont" }, "geometry": { "type": "Point", "coordinates": [ 6.489020254235835, 46.285586373938358 ] } },
{ "type": "Feature", "properties": { "name": "Décollage FFVL de Varan" }, "geometry": { "type": "Point", "coordinates": [ 6.681815549534565, 45.944575975570423 ] } },
{ "type": "Feature", "properties": { "name": "Décollage de Frioland" }, "geometry": { "type": "Point", "coordinates": [ 6.70161971026022, 45.94987403018164 ] } },
{ "type": "Feature", "properties": { "name": "Décollage FFVL de Samoens les Saix 1600" }, "geometry": { "type": "Point", "coordinates": [ 6.697560765850996, 46.054066139377099 ] } },
{ "type": "Feature", "properties": { "name": "Décollage FFVL Mieussy Platière" }, "geometry": { "type": "Point", "coordinates": [ 6.547576922192715, 46.144401577796231 ] } },
{ "type": "Feature", "properties": { "name": "Décollage FFVL Mieussy Pertuiset" }, "geometry": { "type": "Point", "coordinates": [ 6.546017795762147, 46.141337115876006 ] } },
{ "type": "Feature", "properties": { "name": "décollage parapente FFVL Semnoz" }, "geometry": { "type": "Point", "coordinates": [ 6.095103758613455, 45.80478132440377 ] } },
{ "type": "Feature", "properties": { "name": "Atterrissage FFVL de Marlens" }, "geometry": { "type": "Point", "coordinates": [ 6.341449630579369, 45.762520551402972 ] } },
{ "type": "Feature", "properties": { "name": "Atterrissage FFVL Grand Bornand Hiver" }, "geometry": { "type": "Point", "coordinates": [ 6.439111320592787, 45.940650658693336 ] } },
{ "type": "Feature", "properties": { "name": "Saleve - telepherique" }, "geometry": { "type": "Point", "coordinates": [ 6.194318626467356, 46.154815078467536 ] } },
{ "type": "Feature", "properties": { "name": "Décollage FFVL des Crêts" }, "geometry": { "type": "Point", "coordinates": [ 6.171533809372787, 46.130174282958833 ] } },
{ "type": "Feature", "properties": { "name": "Décollage FFVL du Mont Chery" }, "geometry": { "type": "Point", "coordinates": [ 6.646653780093018, 46.167711880058228 ] } },
{ "type": "Feature", "properties": { "name": "Decollage FFVL Chery N" }, "geometry": { "type": "Point", "coordinates": [ 6.647357494306904, 46.168885642820406 ] } },
{ "type": "Feature", "properties": { "name": "Atterrissage FFVL Morzine Puthey" }, "geometry": { "type": "Point", "coordinates": [ 6.715939622172075, 46.178858402899124 ] } },
{ "type": "Feature", "properties": { "name": "Atterrissage FFVL de la Chapelle d'Abondance" }, "geometry": { "type": "Point", "coordinates": [ 6.797646183254495, 46.291048891656814 ] } },
{ "type": "Feature", "properties": { "name": "Atterissage parapente SIV" }, "geometry": { "type": "Point", "coordinates": [ 6.220860442059139, 45.792460219721129 ] } },
{ "type": "Feature", "properties": { "name": "Décollage FFVL du Col du Sapenay" }, "geometry": { "type": "Point", "coordinates": [ 5.866383222354037, 45.821991126471822 ] } },
{ "type": "Feature", "properties": { "name": "Atterrissage FFVL Bois du Bouchet" }, "geometry": { "type": "Point", "coordinates": [ 6.876290859315255, 45.929498615192337 ] } },
{ "type": "Feature", "properties": { "name": "Décollage parapente de Courtet" }, "geometry": { "type": "Point", "coordinates": [ 5.798087657059952, 44.770180296066179 ] } },
{ "type": "Feature", "properties": { "name": "Atterrissage FFVL \"les Vernes\"" }, "geometry": { "type": "Point", "coordinates": [ 6.702721926411244, 46.39434169784144 ] } },
{ "type": "Feature", "properties": { "name": "Décollage FFVL Chatel l'Ortaz" }, "geometry": { "type": "Point", "coordinates": [ 6.855474871903983, 46.270650858668347 ] } },
{ "type": "Feature", "properties": { "name": "Agy plane" }, "geometry": { "type": "Point", "coordinates": [ 6.618911547395388, 46.079892960916588 ] } },
{ "type": "Feature", "properties": { "name": "Agy plane - Attéro de secours" }, "geometry": { "type": "Point", "coordinates": [ 6.587336737915737, 46.064228800113618 ] } },
{ "type": "Feature", "properties": { "name": "Atterrissage FFVL d'Agy \"le Noiret\"" }, "geometry": { "type": "Point", "coordinates": [ 6.577489512611753, 46.071585519571336 ] } },
{ "type": "Feature", "properties": { "name": "Atterrissage FFVL Arache" }, "geometry": { "type": "Point", "coordinates": [ 6.630686705027727, 46.038978227961721 ] } },
{ "type": "Feature", "properties": { "name": "Atterrissage FFVL Carroz d'Arache \"Flocon Vert\"" }, "geometry": { "type": "Point", "coordinates": [ 6.640624038902195, 46.021873643459628 ] } },
{ "type": "Feature", "properties": { "name": "Décollage FFVL \"la Kedeusaz\"" }, "geometry": { "type": "Point", "coordinates": [ 6.670454090554936, 46.031551484600413 ] } },
{ "type": "Feature", "properties": { "name": "décollage FFVL \"l'Arbaron\"" }, "geometry": { "type": "Point", "coordinates": [ 6.663807232998759, 46.007367839631044 ] } },
{ "type": "Feature", "properties": { "name": "décollage FFVL \"les Grands Vans\"" }, "geometry": { "type": "Point", "coordinates": [ 6.709020517299164, 46.019039671816735 ] } },
{ "type": "Feature", "properties": { "name": "Décollage FFVL \"la Tete du Mottey" }, "geometry": { "type": "Point", "coordinates": [ 6.700166427677061, 45.841983466330099 ] } },
{ "type": "Feature", "properties": { "name": "Décollage FFVL Anglettaz" }, "geometry": { "type": "Point", "coordinates": [ 6.241552624402027, 45.960275268914131 ] } },
{ "type": "Feature", "properties": { "name": "Atterrissage FFVL de Villaz" }, "geometry": { "type": "Point", "coordinates": [ 6.209972178649799, 45.94777235961913 ] } },
{ "type": "Feature", "properties": { "name": "Décollage FFVL de Planpraz - Brévent Sud" }, "geometry": { "type": "Point", "coordinates": [ 6.851093382580035, 45.93654117567668 ] } },
{ "type": "Feature", "properties": { "name": "Atterrissage FFVL de Veniper" }, "geometry": { "type": "Point", "coordinates": [ 5.971869766628048, 45.702485142557194 ] } },
{ "type": "Feature", "properties": { "name": "Atterrissage FFVL Topet Aixam" }, "geometry": { "type": "Point", "coordinates": [ 5.935950594850954, 45.691372073477844 ] } },
{ "type": "Feature", "properties": { "name": "Atterrissage FFVL de Saint-Offange" }, "geometry": { "type": "Point", "coordinates": [ 6.011869580132225, 45.732926761733466 ] } },
{ "type": "Feature", "properties": { "name": "Decollage FFVL Sapenay SW Bouilloux" }, "geometry": { "type": "Point", "coordinates": [ 5.867869351820828, 45.799720101339219 ] } },
{ "type": "Feature", "properties": { "name": "Atterrissage FFVL \"les racles\" de Chindrieux" }, "geometry": { "type": "Point", "coordinates": [ 5.830416771336989, 45.827865137350265 ] } },
{ "type": "Feature", "properties": { "name": "Décollage FFVL du Chat" }, "geometry": { "type": "Point", "coordinates": [ 5.821355483429902, 45.66301395011714 ] } },
{ "type": "Feature", "properties": { "name": "Atterrissage FFVL de Saint-Hugues" }, "geometry": { "type": "Point", "coordinates": [ 5.805790447180321, 45.325834119258737 ] } },
{ "type": "Feature", "properties": { "name": "Atterrissage FFVL de Perquelin" }, "geometry": { "type": "Point", "coordinates": [ 5.845174760853826, 45.332231985326153 ] } },
{ "type": "Feature", "properties": { "name": "Décollage FFVL Tete du Planay" }, "geometry": { "type": "Point", "coordinates": [ 6.57094492217225, 45.912972089630806 ] } },
{ "type": "Feature", "properties": { "name": "Atterrissage FFVL Contamine Montjoie" }, "geometry": { "type": "Point", "coordinates": [ 6.719324586341144, 45.800132869451936 ] } },
{ "type": "Feature", "properties": { "name": "Atterissage de Marthod \/ Ugine" }, "geometry": { "type": "Point", "coordinates": [ 6.419145821350611, 45.728282635112905 ] } },
{ "type": "Feature", "properties": { "name": "Atterrissage FFVL du Pré Biollay" }, "geometry": { "type": "Point", "coordinates": [ 6.309699319105587, 45.700163856177042 ] } },
{ "type": "Feature", "properties": { "name": "Atterrissage FFVL de Détrier" }, "geometry": { "type": "Point", "coordinates": [ 6.106096642165753, 45.450874307414232 ] } },
{ "type": "Feature", "properties": { "name": "Atterrissage FFVL Plan des Languots" }, "geometry": { "type": "Point", "coordinates": [ 6.361556931665081, 45.657946192878114 ] } },
{ "type": "Feature", "properties": { "name": "Atterrissage FFVL du Village" }, "geometry": { "type": "Point", "coordinates": [ 5.544576678368925, 45.179270808557462 ] } },
{ "type": "Feature", "properties": { "name": "Atterrissage de secours parapente \"le bouchet\"" }, "geometry": { "type": "Point", "coordinates": [ 5.560448545402974, 45.176792496829492 ] } },
{ "type": "Feature", "properties": { "name": "Altenberg - rocher-du-coucou" }, "geometry": { "type": "Point", "coordinates": [ 7.311650902047052, 48.298716169359736 ] } },
{ "type": "Feature", "properties": { "name": "Landewiese Brenzikofen" }, "geometry": { "type": "Point", "coordinates": [ 7.6121072, 46.8163152 ] } },
{ "type": "Feature", "properties": { "name": "Startplatz Falkenflue" }, "geometry": { "type": "Point", "coordinates": [ 7.637751781753385, 46.823216773075352 ] } },
{ "type": "Feature", "properties": { "name": "Startrampe Falkenflue" }, "geometry": { "type": "Point", "coordinates": [ 7.636818457298765, 46.824005010718317 ] } },
{ "type": "Feature", "properties": { "name": "Rubbio take-off" }, "geometry": { "type": "Point", "coordinates": [ 11.663218380705207, 45.793316241339788 ] } },
{ "type": "Feature", "properties": { "name": "Parapente Decollage\/attérissage Rigny le férron" }, "geometry": { "type": "Point", "coordinates": [ 3.637372405252314, 48.194998222462686 ] } },
{ "type": "Feature", "properties": { "name": "Atterraggio Parapendio scuola Manta" }, "geometry": { "type": "Point", "coordinates": [ 11.652820706611605, 45.768810278311967 ] } },
{ "type": "Feature", "properties": { "name": "Décollage FFVL de Montaud" }, "geometry": { "type": "Point", "coordinates": [ 5.574771961608058, 45.244733720632496 ] } },
{ "type": "Feature", "properties": { "name": "Orcieres - cairn ouest" }, "geometry": { "type": "Point", "coordinates": [ 6.30443616905708, 44.698104778375047 ] } },
{ "type": "Feature", "properties": { "name": "Décollage du Cairn" }, "geometry": { "type": "Point", "coordinates": [ 6.305310064158352, 44.696526931691018 ] } },
{ "type": "Feature", "properties": { "name": "Les richards" }, "geometry": { "type": "Point", "coordinates": [ 6.244652784868626, 44.670678210682944 ] } },
{ "type": "Feature", "properties": { "name": "Landeplatz Kather" }, "geometry": { "type": "Point", "coordinates": [ 9.062721617441397, 48.300352212285944 ] } },
{ "type": "Feature", "properties": { "name": "Landeplatz DGFC Starzeln" }, "geometry": { "type": "Point", "coordinates": [ 9.065716079962058, 48.300936111756556 ] } },
{ "type": "Feature", "properties": { "name": "Startplatz Schnaithalde" }, "geometry": { "type": "Point", "coordinates": [ 9.05757038153596, 48.296354698824587 ] } },
{ "type": "Feature", "properties": { "name": "" }, "geometry": { "type": "Point", "coordinates": [ 10.528399670945133, 45.806229210581641 ] } },
{ "type": "Feature", "properties": { "name": "Landeplatz Ennswiese" }, "geometry": { "type": "Point", "coordinates": [ 13.890825206053352, 47.428923760170626 ] } },
{ "type": "Feature", "properties": { "name": "Startplatz Michaelerberg Knollhof" },